{"updated":1550496863744,"list":[{"index":492,"address":"강원도 속초시 중앙로143번길 19","lat":"38.203388499210696","lng":"128.59006764723512"},{"index":540,"address":"경상북도 상주시 중앙시장길 29","lat":"36.41454466232953","lng":"128.1617004588741"},{"index":644,"address":"서울특별시 송파구 오금로18길 6","lat":"37.510283434618884","lng":"127.11060775492693"},{"index":1270,"address":"충남 서산시 시장3길 5-6","lat":"36.78261536333642","lng":"126.45561079039831"},{"index":1325,"address":"전북 군산시 구영6길 83","lat":"35.9875927931341","lng":"126.71019072742489"},{"index":1390,"address":"전남 담양군 담양읍 향교길 29","lat":"35.32661854138583","lng":"126.9859354975667"},{"index":1474,"address":"강원 춘천시 명동길29번길 4-26","lat":"37.87767725248159","lng":"127.72539799371458"},{"index":2304,"address":"경기도 화성시 동탄치동천로3길 22 ","lat":"37.20358009390097","lng":"127.12239193992693"},{"index":2416,"address":"서울 용산구 이촌로 303","lat":"37.51891127418164","lng":"126.98115451535547"},{"index":2520,"address":"부산 수영구 연수로 392번길 13","lat":"35.16872926755881","lng":"129.11195178113695"},{"index":3291,"address":"광주 동구 제봉로 110번길 17","lat":"35.149173930499565","lng":"126.923601489905"},{"index":3357,"address":"인천 연수구 아트센터대로 203 B동 138호","lat":"37.395205535595956","lng":"126.63128677363652"},{"index":3477,"address":"경기도 의정부시 장곡로 248 장암동아아파트 101동","lat":"37.72606662930176","lng":"127.05314538385336"},{"index":3605,"address":"서울 종로구 예지동 6-1번지 광장주식회사 90호 262-8호","lat":"37.57005709848657","lng":"126.9989495461201"},{"index":4202,"address":"서울 구로구 고척로6길 42 ","lat":"37.49658350060012","lng":"126.8410801869577"},{"index":4273,"address":"서울 종로구 창덕궁1길 8","lat":"37.579462959966904","lng":"126.98883752367084"},{"index":4380,"address":"서울특별시 강동구 진황도로 127","lat":"37.53434102996786","lng":"127.14034967763243"},{"index":4986,"address":"전남 나주시 남평읍 남평2로 50-12","lat":"35.04681940538953","lng":"126.84261068486198"},{"index":5051,"address":"대전 동구 솔랑시울길 5","lat":"36.33663256043048","lng":"127.43608764644404"},{"index":5109,"address":"강원 강릉시 남문길 20","lat":"37.75033114292406","lng":"128.8923847106529"},{"index":5159,"address":"부산 사상구 대동로 73","lat":"35.13722581526816","lng":"128.97647492564022"},{"index":5642,"address":"전남 나주시 남평읍 남평2로 50-12","lat":"35.04681940538953","lng":"126.84261068486198"},{"index":5726,"address":"서울특별시 관악구 청룡2길 29","lat":"37.48124845904899","lng":"126.94441451793365"},{"index":6444,"address":"서울 마포구 월드컵로 106","lat":"37.557970081600665","lng":"126.90870677414863"},{"index":6508,"address":"대구시 수성구 동대구로8길 22번지 3층 ㈜셉코 ","lat":"35.83365842706724","lng":"128.6251537128879"},{"index":6580,"address":"경기도 안양시 동안구 경수대로 767 7층 메디선프라자","lat":"37.38893174223539","lng":"126.94742325100745"},{"index":6666,"address":"전북 군산시 경암로 48","lat":"35.97544236321878","lng":"126.72948741827086"},{"index":6717,"address":"전남 구례군 구례읍 봉성산길 18","lat":"35.20835531627254","lng":"127.46264462311063"},{"index":6783,"address":"부산 부산진구 서전로 47번 길 25","lat":"35.158926000649586","lng":"129.06463678195263"},{"index":6894,"address":"인천시 서구 가좌동 539-3 1층,2층","lat":"37.47751625574294","lng":"126.68005723781552"},{"index":6954,"address":"서울 서초구 양재천로21길 8","lat":"37.476079566868165","lng":"127.03940142848558"},{"index":7011,"address":"대전 서구 괴정동 95-24","lat":"36.33612548431263","lng":"127.38202836372865"},{"index":7809,"address":"부산 해운대구 우동1로20번가길 4","lat":"35.165298950526264","lng":"129.15949835974777"},{"index":7877,"address":"경상남도 남해군 이동면 무림리 1014-8","lat":"34.79951632898996","lng":"127.9536611123762"},{"index":7949,"address":"경북 영주시 부석면 소천리 499-2","lat":"36.97726926724237","lng":"128.65271051488688"},{"index":8024,"address":"경기 안성시 안성맞춤대로 1066","lat":"37.00847514672467","lng":"127.2700392300574"},{"index":8089,"address":"충청남도 아산시 시민로409번길 18","lat":"36.78591917818899","lng":"126.999879005961"},{"index":8156,"address":"서울 마포구 포은로2가길 6","lat":"37.55137405469666","lng":"126.90777326940274"},{"index":8223,"address":"강원 강릉시 남구길5번길 18-1","lat":"37.76272380570979","lng":"128.9053096059547"},{"index":8292,"address":"서울 성동구 한림말3길 27-1","lat":"37.543455072364736","lng":"127.01523069370694"},{"index":8360,"address":"강원 춘천시 춘천로 197","lat":"37.87701386621742","lng":"127.735898334948"},{"index":8447,"address":"경기도 시흥시 정왕동 1234-12","lat":"37.34939503640612","lng":"126.70776105081706"},{"index":9633,"address":"전북 전주시 완산구 전주객사3길 11-6","lat":"35.81777892898517","lng":"127.14202393506818"},{"index":9698,"address":"경기도 남양주시 진건읍 진관리 404-1","lat":"37.643919652011924","lng":"127.16015775967651"},{"index":9769,"address":"부산 부산진구 전포대로246번길 26","lat":"35.15849442243085","lng":"129.06690388911682"},{"index":10332,"address":"경기 안성시 안성맞춤대로 1066","lat":"37.00847514672467","lng":"127.2700392300574"},{"index":10397,"address":"서울시 광진구 자양번영로4길63 1층","lat":"37.53097424063955","lng":"127.07894202761578"},{"index":10467,"address":"서울 마포구 포은로2가길 65","lat":"37.54950911353702","lng":"126.91027423598864"},{"index":11065,"address":"부산 중구 부평1길 39","lat":"35.101287981197935","lng":"129.02573259445973"},{"index":11847,"address":"부산 부산진구 서전로47번길 25","lat":"35.158926000649586","lng":"129.06463678195263"},{"index":11965,"address":"경상남도 남해군 이동면 무림리 1014-8 ","lat":"34.79951632898996","lng":"127.9536611123762"},{"index":12608,"address":"광주 동구 문화전당로26번길 10-2","lat":"35.14513754998354","lng":"126.92066430231347"},{"index":12681,"address":"서울 노원구 공릉로32길 54 ","lat":"37.621705829833715","lng":"127.08206907282808"},{"index":12816,"address":"전북 군산시 경암로 48","lat":"35.97544236321878","lng":"126.72948741827086"},{"index":13301,"address":"전라북도 전주시 완산구 태평5길 49","lat":"35.82484340416615","lng":"127.14320514267506"},{"index":13349,"address":"서울 광진구 능동로35길 23","lat":"37.55695270441516","lng":"127.07765206090804"},{"index":13416,"address":"서울시 강남구 신사동 664-7 유성상가 1층 리페어청담","lat":"37.52723120233889","lng":"127.04019308051076"},{"index":13652,"address":"서울특별시 관악구 관악로10길 36","lat":"37.476654095928986","lng":"126.95469230673844"},{"index":14156,"address":"충남 부여군 홍산면 남촌로9번길 1-3","lat":"36.21421235480791","lng":"126.75718227259466"},{"index":14228,"address":"서울시 강남구 신사동 664-7 유성상가 1층 리페어청담","lat":"37.52723120233889","lng":"127.04019308051076"},{"index":14375,"address":"경기 오산시 원동로37번길 12 (주)월드테크","lat":"37.14349198789449","lng":"127.07232441482658"},{"index":14935,"address":"경상남도 거제시 일운면 지세포로 105","lat":"34.82977385911323","lng":"128.70353923064945"},{"index":15009,"address":"서울특별시 중랑구 공릉로12가길 14","lat":"37.61641629233894","lng":"127.08052737631331"},{"index":15140,"address":"대전 서구 괴정동 95-24","lat":"36.33612548431263","lng":"127.38202836372865"},{"index":15588,"address":"경기도 성남시 분당구 운중로225번길 48-1","lat":"37.391001536657676","lng":"127.0921066908096"},{"index":15651,"address":"서울시 동대문구 용두동 129-157 지층","lat":"37.57126743255653","lng":"127.03153676540667"},{"index":15714,"address":"서울 종로구 새문안로5길 37 도렴빌딩 지하1층 34호","lat":"37.57364745531812","lng":"126.97421283627716"},{"index":15790,"address":"경기도 안성시 일죽면 주래본죽로 368","lat":"37.08857275556577","lng":"127.5134978650145"},{"index":16345,"address":"전남 구례군 구례읍 봉성산길 18","lat":"35.20835531627254","lng":"127.46264462311063"},{"index":16427,"address":"대구시 수성구 동대구로8길 22번지 3층 ㈜셉코","lat":"35.83365842706724","lng":"128.6251537128879"},{"index":16519,"address":"인천광역시 서구 가좌로 31","lat":"37.47711312388816","lng":"126.680248888289"},{"index":16570,"address":"인천시 서구 가좌동 539-3 1층,2층","lat":"37.47751625574294","lng":"126.68005723781552"},{"index":17575,"address":"부산 서구 대신공원로 7-6 ","lat":"35.11879281949056","lng":"129.0161983957003"},{"index":17638,"address":"부산 수영구 수영로 603번길 14 ","lat":"35.16001606940915","lng":"129.1128281503063"},{"index":17697,"address":"서울 용산구 이촌로 303","lat":"37.51891127418164","lng":"126.98115451535547"},{"index":17759,"address":"서울특별시 은평구 증산로 397 ","lat":"37.591804246892046","lng":"126.91352522179159"},{"index":17860,"address":"서울특별시 구로구 디지털로26길 111 제이앤케이디지털타워","lat":"37.48258260682533","lng":"126.89704451450376"},{"index":17934,"address":"광주 서구 농성1동 59-11","lat":"35.15374165043561","lng":"126.89431183909252"},{"index":17996,"address":"서울특별시 용산구 한강로2가 218 1층","lat":"37.526688926104406","lng":"126.96594337580747"},{"index":18064,"address":"인천 남동구 구월2동 1241-1 디옴프라자 6층 602호","lat":"37.456900804005144","lng":"126.7151102723103"},{"index":18288,"address":"서울 마포구 와우산로 39-21 ","lat":"37.5481624500074","lng":"126.92216694600276"},{"index":18355,"address":"부산 중구 부평동1가 29-27","lat":"35.100627330052866","lng":"129.02686980723536"},{"index":18402,"address":"서울시 마포구 잔다리로7안길14","lat":"37.55251605460424","lng":"126.91685253405814"},{"index":18477,"address":"서울시 성동구 한림말3길 27-1 ","lat":"37.543455072364736","lng":"127.01523069370694"},{"index":18951,"address":"서울 마포구 월드컵로3길 31-5","lat":"37.55008994492887","lng":"126.91105211645622"},{"index":19018,"address":"전라북도 무주군 무주읍 한풍루로 408 무주경찰서","lat":"36.003871838195195","lng":"127.67017361135062"},{"index":19101,"address":"전북 고창군 고창읍 시장길 14","lat":"35.43411328400299","lng":"126.69832019585031"},{"index":19166,"address":"서울 마포구 월드컵로 106","lat":"37.557970081600665","lng":"126.90870677414863"},{"index":19671,"address":"서울 성동구 한림말3길 27-1","lat":"37.543455072364736","lng":"127.01523069370694"},{"index":19742,"address":"서울 마포구 월드컵로 106","lat":"37.557970081600665","lng":"126.90870677414863"},{"index":19824,"address":"서울 마포구 양화로 166","lat":"37.55674485604517","lng":"126.9241680135153"},{"index":20403,"address":"부산 서구 대신공원로 7-6 ","lat":"35.11879281949056","lng":"129.0161983957003"},{"index":20552,"address":"충남 태안군 남면 마검포길 313-30","lat":"36.60948403633812","lng":"126.29084151120139"},{"index":20867,"address":"경기도 이천시 마장면 회억리 산46 특전사령부 충성회관 2층","lat":"37.2667328199318","lng":"127.36893370048638"},{"index":20955,"address":"대구 수성구 달구벌대로641길 17","lat":"35.84172550580635","lng":"128.7080403127899"},{"index":21494,"address":"서울 용산구 청파로47나길 4","lat":"37.545048029128935","lng":"126.96705302312651"},{"index":21546,"address":"전남 목포시 영산로75번길 6","lat":"34.7897635823327","lng":"126.3848188609087"},{"index":21672,"address":"서울 중구 다산로10길 6","lat":"37.553438668878144","lng":"127.01032566010825"},{"index":22263,"address":"경기 파주시 광탄면 보광로 542","lat":"37.755685158635025","lng":"126.90873217610674"},{"index":22341,"address":"경기도 안양시 동안구 경수대로 767 7층 메디선프라자","lat":"37.38893174223539","lng":"126.94742325100745"},{"index":22564,"address":"서울 성북구 동소문로24길 27","lat":"37.592418244836274","lng":"127.01895458826728"},{"index":23087,"address":"부산 남구 석포로 77-1","lat":"35.124976023696526","lng":"129.08848053734033"},{"index":23163,"address":"경기도 안양시 동안구 경수대로 767 7층 메디선프라자","lat":"37.38893174223539","lng":"126.94742325100745"},{"index":23251,"address":"서울 서대문구 충정로9길 20","lat":"37.56449797303937","lng":"126.96431891519929"},{"index":23854,"address":"경기 부천시 길주로 87","lat":"37.50633743528403","lng":"126.75196012735505"},{"index":23915,"address":"부산 수영구 연수로 392번길 13","lat":"35.16872926755881","lng":"129.11195178113695"},{"index":24008,"address":"서울 중구 세종대로14길 29","lat":"37.56288678847969","lng":"126.9783183559273"},{"index":24602,"address":"경남 진주시 남강로659번길 8","lat":"35.19167291259623","lng":"128.08380388362323"},{"index":24708,"address":"서울 서초구 명달로22길 12-12","lat":"37.48616653076159","lng":"127.00472175165478"},{"index":25307,"address":"경기도 용인시 처인구 금령로85번길 14-5","lat":"37.236813720016606","lng":"127.20602938582682"},{"index":25405,"address":"경기 고양시 일산동구 일산로358번길 34","lat":"37.66773996924457","lng":"126.78450211074515"},{"index":25781,"address":"경기 고양시 일산동구 일산로358번길 34","lat":"37.66773996924457","lng":"126.78450211074515"},{"index":25850,"address":"충남 태안군 남면 마검포길 313-30","lat":"36.60948403633812","lng":"126.29084151120139"},{"index":25918,"address":"충남 예산군 예산읍 임성로23번길 8","lat":"36.68068354674405","lng":"126.84862366503164"},{"index":26336,"address":"경남 창원시 성산구 마디미로31번길 4","lat":"35.22139524515584","lng":"128.6840316688293"},{"index":26408,"address":"경기 김포시 하성면 오정동로 131-17","lat":"37.72321742701262","lng":"126.65396305292843"},{"index":26483,"address":"경기 평택시 팽성읍 팽성송화로 213","lat":"36.964194454108885","lng":"127.06287463705311"},{"index":27034,"address":"강원도 원주시 중앙동 중앙시장길 6 중앙시장","lat":"37.350013192940914","lng":"127.94919038925246"},{"index":27111,"address":"경기도 부천시 부천로 309번길 15 세광빌딩 202호","lat":"37.51143071981676","lng":"126.78353621538791"},{"index":27212,"address":"경기 김포시 하성면 오정동로 131-17","lat":"37.72321742701262","lng":"126.65396305292843"},{"index":27298,"address":"강원 강릉시 사천면 진리해변길 68-9","lat":"37.83773447753675","lng":"128.8768237949398"},{"index":27763,"address":"충남 금산군 추부면 삼육로 10","lat":"36.190951318668034","lng":"127.46644808939617"},{"index":27825,"address":"경기도 부천시 부천로 309번길 15 세광빌딩 202호","lat":"37.51143071981676","lng":"126.78353621538791"},{"index":27922,"address":"경기도 포천시 영북면 소회산길 400","lat":"38.0915430744985","lng":"127.23355730617952"},{"index":28006,"address":"경북 안동시 합전2길 23","lat":"36.57048928647955","lng":"128.69880652734554"},{"index":28524,"address":"서울 중구 을지로20길 24","lat":"37.56541147635587","lng":"126.9953230540173"},{"index":28577,"address":"충북 충주시 예성로 168","lat":"36.97189399155864","lng":"127.93361234078975"},{"index":28645,"address":"경기도 부천시 부천로 309번길 15 세광빌딩 202호","lat":"37.51143071981676","lng":"126.78353621538791"},{"index":28744,"address":"경기도 포천시 영북면 소회산길 400 ","lat":"38.0915430744985","lng":"127.23355730617952"},{"index":28839,"address":"대전 중구 선화로 119번길 33","lat":"36.331616260319926","lng":"127.4195714929392"},{"index":29327,"address":"경남 밀양시 가곡동 621-3 ","lat":"35.47639465621556","lng":"128.76530237472505"},{"index":29388,"address":"서울 강남구 남부순환로351길 4","lat":"37.48515594213695","lng":"127.03491064128553"},{"index":29442,"address":"시흥시 정왕동 1234-12로 이전 할 예정입니다.","lat":"37.35179034806298","lng":"126.71158922806404"},{"index":29499,"address":"경기도 고양시 덕양구 마상로 79","lat":"37.6620482713448","lng":"126.83267680337393"},{"index":29546,"address":"경기도 포천시 영북면 소회산길 400","lat":"38.0915430744985","lng":"127.23355730617952"},{"index":29612,"address":"인천시 서구 경서로 28","lat":"37.55495936509888","lng":"126.65460223081053"},{"index":29670,"address":"대구 중구 국채보상로102길 5-9","lat":"35.86996352839006","lng":"128.58578981661515"},{"index":30221,"address":"강원 원주시 이화4길 30","lat":"37.34020170522701","lng":"127.93260498203523"},{"index":30275,"address":"대전 중구 유천로18번길 9","lat":"36.31449065899941","lng":"127.39946746164229"},{"index":30346,"address":"경기도 고양시 덕양구 마상로 79 ","lat":"37.6620482713448","lng":"126.83267680337393"},{"index":30397,"address":"경기도 포천시 영북면 소회산길 400 ","lat":"38.0915430744985","lng":"127.23355730617952"},{"index":30466,"address":"인천시 서구 경서로 28","lat":"37.55495936509888","lng":"126.65460223081053"},{"index":30528,"address":"부산 영도구 절영로 104","lat":"35.085826181137726","lng":"129.0406330982465"},{"index":30989,"address":"경북 영주시 부석면 소천리 499-2","lat":"36.97726926724237","lng":"128.65271051488688"},{"index":31043,"address":"부산 강서구 식만로 50 루어어택","lat":"35.20042160212847","lng":"128.90188983242143"},{"index":31103,"address":"강원 춘천시 사농동 217-13","lat":"37.92318321713107","lng":"127.72156390912701"},{"index":31607,"address":"부산 해운대구 우동1로20번가길 4 ","lat":"35.165298950526264","lng":"129.15949835974777"},{"index":31730,"address":"서울시 성북구 오패산로 46 두산위브상가 128호","lat":"37.607474381178214","lng":"127.0387095809495"},{"index":31786,"address":"강원 홍천군 서면 반곡리 233","lat":"37.69148267756588","lng":"127.66519535945024"},{"index":31853,"address":"서울 관악구 남부순환로 1802","lat":"37.48117178608817","lng":"126.95028471361077"},{"index":32254,"address":"강원 태백시 번영로 340","lat":"37.17148508001367","lng":"128.99044219088532"},{"index":32321,"address":"서울시 노원구 상계동 626","lat":"37.66913375200982","lng":"127.05745270242149"},{"index":32367,"address":"부산 수영구 수영로 603번길 14 ","lat":"35.16001606940915","lng":"129.1128281503063"},{"index":32413,"address":"부산광역시 남구 문현금융로 24-6","lat":"35.14462026843855","lng":"129.06520564729124"},{"index":32776,"address":"강원도 삼척시 오십천로 455","lat":"37.43973767897704","lng":"129.16816744319092"},{"index":32838,"address":"인천광역시 계양구 효서로 231","lat":"37.52821128346482","lng":"126.721740331287"},{"index":32881,"address":"서울특별시 서대문구 연세로 50","lat":"37.56380481505454","lng":"126.94293162098654"},{"index":33453,"address":"강원 영월군 영월읍 분수대길 34","lat":"37.1802148700107","lng":"128.46329344740676"},{"index":33533,"address":"경기도 안양시 동안구 호계동 903-8번지 메디선프라자 7층","lat":"37.38894253441702","lng":"126.94737807443944"},{"index":33623,"address":"충청남도 아산시 시민로409번길 18 ","lat":"36.78591917818899","lng":"126.999879005961"},{"index":33997,"address":"경상남도 창원시 성산구 상남로 67","lat":"35.22016645296412","lng":"128.67932785037928"},{"index":34061,"address":"경기도 성남시 분당구 판교역로 178 서건타워 108호","lat":"37.39650404746723","lng":"127.11006087736178"},{"index":34652,"address":"강원 춘천시 춘천로 197","lat":"37.87701386621742","lng":"127.735898334948"},{"index":34696,"address":"대구 남구 봉덕로 117","lat":"35.8447168932735","lng":"128.60318158481883"},{"index":34766,"address":"경기도 성남시 분당구 판교역로 178 서건타워 108호","lat":"37.39650404746723","lng":"127.11006087736178"},{"index":34851,"address":"서울 성동구 한림말3길 14/ 옥수동 362-3","lat":"37.54239178626097","lng":"127.01603613118141"},{"index":35454,"address":"경기도 남양주시 봉현로 36번길 11","lat":"37.71774563831057","lng":"127.18021036427362"},{"index":35488,"address":"경기 안성시 죽산면 죽주로 256","lat":"37.07498616911687","lng":"127.42374416784543"},{"index":35639,"address":"서울 마포구 토정로 23-1","lat":"37.54578510427777","lng":"126.91365535567824"},{"index":36033,"address":"서울 용산구 청파로47길 1","lat":"37.544807430229014","lng":"126.97033016349593"},{"index":36072,"address":"서울 용산구 우사단로10다길 1","lat":"37.53173944143274","lng":"127.00100466123685"},{"index":36116,"address":"서울 동대문구 경희대로6길 3-4","lat":"37.593546688066034","lng":"127.05307364681714"},{"index":36178,"address":"경북 김천시 자산로 163","lat":"36.12487936419817","lng":"128.11778002414212"},{"index":36231,"address":"충청북도 청주시 청원구 발산로 6-2","lat":"36.679423800013964","lng":"127.48249656008522"},{"index":36747,"address":"서울특별시 금천구 시흥3동  984번지 시흥유통센타 BB53호","lat":"37.4433312563841","lng":"126.90164109016378"},{"index":36839,"address":"경남 김해시 덕정로 12번길 35","lat":"35.17702542629599","lng":"128.78989336940845"},{"index":36912,"address":"서울특별시 종로구 율곡로 20","lat":"37.575490487525755","lng":"126.98170628456057"},{"index":36983,"address":"경기도 성남시 수정구 수정로 180번길 3","lat":"37.44299722425538","lng":"127.14009752268765"},{"index":37439,"address":"서울 마포구 희우정로 115 ","lat":"37.55489645544015","lng":"126.90049872826354"},{"index":37493,"address":"경기 수원시 팔달구 화서문로 75번길 26","lat":"37.28701397564857","lng":"127.01711399002404"},{"index":37540,"address":"서울 광진구 능동로38길 32","lat":"37.557126700066796","lng":"127.08150927512571"},{"index":37594,"address":"서울특별시 서초구 사평대로57길 54 2층 파란헤어","lat":"37.506610102899366","lng":"127.02261991824734"},{"index":38073,"address":"경기 용인시 수지구 성복2로76번길 26-3","lat":"37.31526937661067","lng":"127.08077810731467"},{"index":38153,"address":"강원 강릉시 경강로 2263","lat":"37.76557056928094","lng":"128.9093089642524"},{"index":38197,"address":"강원 강릉시 남구길5번길 18-1","lat":"37.76272380570979","lng":"128.9053096059547"},{"index":38245,"address":"강원 강릉시 연곡면 방내리 67-2","lat":"37.859261404883746","lng":"128.83172114632248"},{"index":38294,"address":"강원 평창군 용평면 금송길 15-9","lat":"37.585374450321865","lng":"128.41297702634736"},{"index":38341,"address":"강원도 삼척시 원덕읍 호산중앙로 9 ","lat":"37.17488796114196","lng":"129.33586351143992"},{"index":38389,"address":"강원도 삼척시 근덕면 교가길 14 ","lat":"37.38026957479994","lng":"129.2267715116814"},{"index":38932,"address":"서울특별시 은평구 증산로 397","lat":"37.591804246892046","lng":"126.91352522179159"},{"index":38988,"address":"울산 울주군 언양읍 동부2길 41","lat":"35.56923010462034","lng":"129.12744851508762"},{"index":39100,"address":"서울 송파구 잠실동 222-4","lat":"37.50704304664028","lng":"127.07976733417883"},{"index":39661,"address":"충청북도 청주시 청원구 북이면 충청대로 1527","lat":"36.77217339687937","lng":"127.56449061554125"},{"index":39743,"address":"경기 의정부시 오목로205번길 55 메가타워1층 LG유플러스 민락홈직영점","lat":"37.74575999890605","lng":"127.09593482749062"},{"index":39820,"address":"서울 마포구 월드컵로 123","lat":"37.559093156931304","lng":"126.90695339555836"},{"index":39887,"address":"인천 남동구 예술로 148 롯데백화점인천점 내 B1F","lat":"37.447046268803206","lng":"126.70152774234535"},{"index":39974,"address":"부산광역시 중구 중구로 47번길 45","lat":"35.1021968579875","lng":"129.02548752670253"},{"index":40441,"address":"강원 강릉시 경강로 2263","lat":"37.76557056928094","lng":"128.9093089642524"},{"index":40519,"address":"서울특별시 은평구 진관동 70-13","lat":"37.63817178801454","lng":"126.91726928227118"},{"index":40559,"address":"강원 춘천시 춘천로 17번길 17   ","lat":"37.866433102671095","lng":"127.7202009956162"},{"index":40615,"address":"서울 중구 퇴계로10길 14","lat":"37.558702881191536","lng":"126.98014852932329"},{"index":40656,"address":"서울 용산구 이촌로 303","lat":"37.51891127418164","lng":"126.98115451535547"},{"index":41057,"address":"서울시 도봉구 삼양로 144길 18","lat":"37.65136515499499","lng":"127.01387928175558"},{"index":41125,"address":"부산광역시 동래구 온천동480-61 2층","lat":"35.213247560218946","lng":"129.0777081736866"},{"index":41212,"address":"서울 중구 충무로 48","lat":"37.56537531923236","lng":"126.99295968297642"},{"index":41668,"address":"강원 강릉시 남구길5번길 18-1","lat":"37.76272380570979","lng":"128.9053096059547"},{"index":41711,"address":"광주 북구 서림로 141","lat":"35.16007068372691","lng":"126.9003227452893"},{"index":41782,"address":"서울 광진구 능동로 120","lat":"37.5391833068666","lng":"127.07470986622155"},{"index":41827,"address":"서울 관악구 남부순환로 1829-6","lat":"37.481346179517516","lng":"126.95373071232497"},{"index":42206,"address":"서울 중구 퇴계로 179-1 2층","lat":"37.561277519223275","lng":"126.99189615612266"},{"index":42229,"address":"서울 중구 필동 1가 19 2층","lat":"37.56127751953393","lng":"126.99190068340972"},{"index":42276,"address":"서울 강동구 양재대로 112길 57","lat":"37.5363774663454","lng":"127.14320473409843"},{"index":42300,"address":"서울 강동구 길동 403","lat":"37.53636649514342","lng":"127.14333596065109"},{"index":42344,"address":"부산 남구 용호로232번길 25-14","lat":"35.11051602993119","lng":"129.10918476839578"},{"index":42369,"address":"부산 남구 용호동 538-41","lat":"35.109698816991596","lng":"129.10995328695935"},{"index":42423,"address":"서울 중구 청계천로 274","lat":"37.569426132167656","lng":"127.00804586550203"},{"index":42443,"address":"서울 중구 을지로6가 17-145","lat":"37.56937933891782","lng":"127.00713577720917"},{"index":43032,"address":"성동구 마장동 마조로15-10","lat":"37.559115742439516","lng":"127.04027810861288"},{"index":43062,"address":"서울특별시 성동구 성수동 1가 656-3 105호","lat":"37.542661733049485","lng":"127.04519824430663"},{"index":43109,"address":"경기도 남양주시 진접읍 부평리 17-4 ","lat":"37.75708802149363","lng":"127.20306069898878"},{"index":43163,"address":"경기 성남시 분당구 율동 200-3 ","lat":"37.390340473052774","lng":"127.15551531273664"},{"index":43317,"address":"경기 평택시 평택2로 102","lat":"36.99872147405","lng":"127.09401754484402"},{"index":43365,"address":"서울시 강동구 고덕동 85번지","lat":"37.56994779005812","lng":"127.16065576483444"},{"index":43851,"address":"경상남도 사천시 중앙로 7(지번) 선구동 58-12","lat":"34.92751771092265","lng":"128.07326162894495"},{"index":43907,"address":"강원 홍천군 홍천읍 오안로 3-7(지번) 하오안리 634-1","lat":"37.66051238517831","lng":"127.82990499462531"},{"index":43962,"address":"부산 중구 부평동 1가 29-27(지번) 부평동1가 29-27","lat":"35.100627330052866","lng":"129.02686980723536"},{"index":44019,"address":"서울 강남구 테헤란로34길 21-10(지번) 역삼동 723-30","lat":"37.50029435518118","lng":"127.0414452461966"},{"index":44076,"address":"전라북도 익산시 서동로 160-1 (지번) 마동 70-11","lat":"35.936456294497944","lng":"126.9685402602341"},{"index":44133,"address":"강원 강릉시 강동면 풍호길 270(지번) 하시동리 718","lat":"37.748865334403206","lng":"128.95978721873684"},{"index":44189,"address":"서울 강북구 삼양로 246(지번) 미아동 777-6번지","lat":"37.62542333813217","lng":"127.01865484609218"},{"index":44230,"address":"서울 마포구 백범로 109(지번) 대흥동 194-2 ","lat":"37.54735647396591","lng":"126.94349186269486"},{"index":44281,"address":"부산 동구 초량중로 26(지번) 초량동 591-11","lat":"35.114286998827694","lng":"129.03710061120927"},{"index":44341,"address":"서울 마포구 와우산로 39-21(지번) 상수동 310-11","lat":"37.5481624500074","lng":"126.92216694600276"},{"index":44406,"address":"서울 관악구 남부순환로234길 19(지번) 봉천동 1620-3 1층(새우당)","lat":"37.478536319404334","lng":"126.95714677405748"},{"index":44472,"address":"충남 천안시 서북구 성정11길 24(지번) 성정동 718-3","lat":"36.815122590416884","lng":"127.13720102745168"},{"index":44969,"address":"서울시 마포구 와우산로 39-21","lat":"37.5481624500074","lng":"126.92216694600276"},{"index":45062,"address":"서울시 강남구 개포동 1204-4","lat":"37.47747021369088","lng":"127.05025097906746"},{"index":45139,"address":"전북 익산시 중앙로 9길 16-1","lat":"35.93942978086634","lng":"126.95524455067257"},{"index":45579,"address":"서울 마포구 와우산로 39-21","lat":"37.5481624500074","lng":"126.92216694600276"},{"index":45662,"address":"서울시 강남구 언주로 174길 29","lat":"37.5281190065271","lng":"127.03643757273993"},{"index":46312,"address":"서울특별시 마포구 삼개로8","lat":"37.539638522539484","lng":"126.94741265856081"},{"index":46380,"address":"경기도 광명시 하안로 60","lat":"37.444744673485665","lng":"126.89402713184087"},{"index":46432,"address":"서울특별시 영등포구 국제금융로6길 33","lat":"37.52078947719326","lng":"126.92691027043375"},{"index":46506,"address":"경기 수원시 팔달구 권광로175번길 31-12","lat":"37.263332016708844","lng":"127.03020390140085"},{"index":46591,"address":"서울 마포구 어울마당로5길 31","lat":"37.54945045138404","lng":"126.91885668367274"},{"index":47028,"address":"서울시 마포구 성암로 219-5","lat":"37.578678237929594","lng":"126.89529572729839"},{"index":47115,"address":"서울시 강동구 고덕동 85번지","lat":"37.56994779005812","lng":"127.16065576483444"},{"index":47179,"address":"충남 천안시 서북구 성정동 718-3","lat":"36.81496401093732","lng":"127.13718729559103"},{"index":47812,"address":"충남 공주시 계룡면 마방길 5-12","lat":"36.35931351449556","lng":"127.1428989520157"},{"index":47860,"address":"경기도 구리시 수택동 453-24","lat":"37.59241984098965","lng":"127.14283195967148"},{"index":47895,"address":"안동시 풍산읍 풍산중앙길 152번지","lat":"36.57782462707962","lng":"128.5770574286677"},{"index":47967,"address":"경기도 파주시 금촌동 337-1 ","lat":"37.76272625476391","lng":"126.77228786062528"},{"index":48050,"address":"강원도 홍천군 홍천읍 하오안리 634-1","lat":"37.660465124442055","lng":"127.82996339984709"},{"index":48548,"address":"강원도 홍천군 홍천읍 하오안리 634-1","lat":"37.660465124442055","lng":"127.82996339984709"},{"index":48640,"address":"경기 수원시 팔달구 중부대로3번길 27","lat":"37.27652226087132","lng":"127.01719279776312"},{"index":49191,"address":"서울특별시 강북구 미아동 777-6번지 서명상가 내 떡볶이 (1층)","lat":"37.6253800886115","lng":"127.01866842879967"},{"index":49326,"address":"충청남도 천안시 서북구 번영로 156 천안시청","lat":"36.81612841107744","lng":"127.11304832147331"},{"index":49434,"address":"충남 홍성군 홍성읍 홍성천길 242","lat":"36.60215278382526","lng":"126.6680220813618"},{"index":49844,"address":"서울 용산구 독서당로29길 5-6","lat":"37.53695027304173","lng":"127.01151820157179"},{"index":49977,"address":"서울시 중구 수하동 67번지 미래에셋센터원 서관 36층 ","lat":"37.567421661369075","lng":"126.98517644473714"},{"index":50044,"address":"충청남도 서산시 동문동 201-11","lat":"36.778089104368476","lng":"126.4653436210134"},{"index":50654,"address":"강원도 삼척시 원덕읍 호산중앙로 9 ","lat":"37.17488796114196","lng":"129.33586351143992"},{"index":50720,"address":"부산 중구 부평동1가 29-27","lat":"35.100627330052866","lng":"129.02686980723536"},{"index":50778,"address":"부산 중구 대청로141번길 18-3","lat":"35.104484696187","lng":"129.0352380288719"},{"index":50849,"address":"충남 홍성군 광천읍 광천리 199-28","lat":"36.5011433477871","lng":"126.62599831675006"},{"index":50915,"address":"전북 익산시 마동 349-1","lat":"35.93436372984433","lng":"126.96267662028217"},{"index":51038,"address":"충청북도 청주시 상당구 용정로38번길 27-1 ","lat":"36.62879645020652","lng":"127.51819010156527"},{"index":51195,"address":"경기 성남시 분당구 율동 200-3","lat":"37.390340473052774","lng":"127.15551531273664"},{"index":51261,"address":"경기 여주시 홍문동 195 ","lat":"37.29345889685754","lng":"127.63602447650449"},{"index":51316,"address":"부산 영도구 대평로 33번길 2","lat":"35.09177212358118","lng":"129.0336633049881"},{"index":51987,"address":"충남 공주시 제민천1길 67","lat":"36.45203358655203","lng":"127.12321305004136"},{"index":52055,"address":"서울 종로구 봉익동 22-2번지 대흥사약국건물","lat":"37.57251115784963","lng":"126.9922209526744"},{"index":52206,"address":"경기 평택시 평택2로 102","lat":"36.99872147405","lng":"127.09401754484402"},{"index":52275,"address":"경북 김천시 중앙시장3길 8-1","lat":"36.11880544397743","lng":"128.12510448679376"},{"index":52358,"address":"서울시 양천구 목동 914번지 목동운동장 내 (목동야구장 외부 1층)","lat":"37.53050164100429","lng":"126.88165559925815"},{"index":52441,"address":"대구 중구 교동 61-2","lat":"35.87361341932053","lng":"128.5967883635057"},{"index":52587,"address":"충청남도 당진시 수청동 997","lat":"36.90149688735272","lng":"126.64699171774575"},{"index":52659,"address":"경기 용인시 수지구 심곡로 87","lat":"37.3107238866612","lng":"127.08175690768351"},{"index":52718,"address":"경기 성남시 분당구 판교역로 6","lat":"37.38373296399972","lng":"127.11197079216211"},{"index":52790,"address":"경기 고양시 일산동구 성석동 601-3","lat":"37.699866332633256","lng":"126.79945404541115"},{"index":52855,"address":"강원도 삼척시 근덕면 교가길 14 ","lat":"37.38026957479994","lng":"129.2267715116814"},{"index":53231,"address":"강원 평창군 용평면 금송길 15-9","lat":"37.585374450321865","lng":"128.41297702634736"},{"index":53287,"address":"충청남도 공주시 정안면 모란길 108번지","lat":"36.53586775878602","lng":"127.12205501503279"},{"index":53343,"address":"경기 수원시 장안구 서부로 2106번길 18","lat":"37.29700247919882","lng":"126.97145637057014"},{"index":53389,"address":"서울 강남구 학동로12길 14","lat":"37.51132718610029","lng":"127.02545805788812"},{"index":53847,"address":"경남 사천시 곤명면 정곡리 858-6","lat":"35.13229527609589","lng":"127.97646650807935"},{"index":53918,"address":"경기 여주시 홍문동 195","lat":"37.29345889685754","lng":"127.63602447650449"},{"index":54292,"address":"경기 평택시 평택2로 102","lat":"36.99872147405","lng":"127.09401754484402"},{"index":54346,"address":"경기 여주시 홍문동 195 <수연명품수선>","lat":"37.29345889685754","lng":"127.63602447650449"},{"index":54407,"address":"서울시 서초구 동광로39길 79 반포빌딩","lat":"37.49847798786598","lng":"126.99951598624442"},{"index":54989,"address":"서울 종로구 삼일대로 434-1","lat":"37.57354156037007","lng":"126.9881773152576"},{"index":55049,"address":"충청남도 예산군 예산읍 천변로 167","lat":"36.67692756541464","lng":"126.84856837493102"},{"index":55125,"address":"대전광역시 중구 선화동 36번지","lat":"36.32898179935719","lng":"127.42349551342751"},{"index":55188,"address":"서울 마포구 독막로3길 24-6","lat":"37.54915739707429","lng":"126.91722744237667"},{"index":55739,"address":"전북 군산시 구영1길 108-7","lat":"35.98941412192227","lng":"126.70904851032482"},{"index":55810,"address":"안동시 용상동 전거리 4길 7-13 ","lat":"36.559485636985535","lng":"128.74300880647462"},{"index":55895,"address":"서울 강남구 삼성로 212 지하1층 65호 ","lat":"37.49961649024463","lng":"127.06591733758967"},{"index":55951,"address":"서울 마포구 백범로 109","lat":"37.54735647396591","lng":"126.94349186269486"},{"index":56384,"address":"전북 완주군 용진면 완주로 180","lat":"35.88097556240781","lng":"127.15607257894796"},{"index":56445,"address":"안동시 용상동 전거리 4길 7-13","lat":"36.559485636985535","lng":"128.74300880647462"},{"index":56505,"address":"부산 중구 중앙동4가 42-2","lat":"35.10514165966127","lng":"129.0349692500043"},{"index":56539,"address":"부산광역시 중구 신창동3가 15-4","lat":"35.100733081082595","lng":"129.02895147212513"},{"index":56965,"address":"경기 용인시 수지구 심곡로 87","lat":"37.3107238866612","lng":"127.08175690768351"},{"index":57053,"address":"충청북도 청주시 상당구 용정로38번길 27-1 ","lat":"36.62879645020652","lng":"127.51819010156527"},{"index":57126,"address":"경기 성남시 분당구 판교역로 6","lat":"37.38373296399972","lng":"127.11197079216211"},{"index":57424,"address":"서울특별시 서대문구 거북골로 15-2","lat":"37.580492358336755","lng":"126.92552963997048"},{"index":57485,"address":"부산 북구 덕천로281번길 54 ","lat":"35.211683972528576","lng":"129.03566211957755"},{"index":57530,"address":"서울시 강서구 양천로 401 강서한강자이타워 ","lat":"37.565702492005066","lng":"126.84764329770357"},{"index":57592,"address":"경기 성남시 분당구 판교역로 6","lat":"37.38373296399972","lng":"127.11197079216211"},{"index":58183,"address":"부산 부산진구 서전로 15","lat":"35.15790015423404","lng":"129.06137600132814"},{"index":58225,"address":"부산 부산진구 백양대로 60번길 18","lat":"35.163142928842056","lng":"129.04277392533993"},{"index":58363,"address":"광주광역시 북구 첨단연신로 12","lat":"35.19897369505928","lng":"126.86379209359"},{"index":58491,"address":"대구 수성구 달구벌대로526안길 10","lat":"35.85629054679094","lng":"128.64929096493242"},{"index":58917,"address":"서울특별시 노원구 동일로 237다길 7","lat":"37.67391482058497","lng":"127.05258220820231"},{"index":58989,"address":"제주시 한경면 두모리 2724-1","lat":"33.35330810272536","lng":"126.18339262085014"},{"index":59087,"address":"서울특별시 서초구 양재 2동 327","lat":"37.46874501937389","lng":"127.04036070080454"},{"index":59600,"address":"서울 성북구 동소문로18길 12-3","lat":"37.59166549173383","lng":"127.01571154229946"},{"index":59677,"address":"경기도 남양주시 진접읍 부평리 17-4 ","lat":"37.75708802149363","lng":"127.20306069898878"},{"index":59763,"address":"서울 마포구 동교로 278","lat":"37.56394709164183","lng":"126.9264923492591"},{"index":59833,"address":"충청남도 당진시 밤절로 168","lat":"36.90151849994408","lng":"126.64698713020252"},{"index":60201,"address":"강원도 강릉시 강동면 하시동리 718","lat":"37.74898481568697","lng":"128.9595362414233"},{"index":60277,"address":"충청남도 당진시 수청동 997","lat":"36.90149688735272","lng":"126.64699171774575"},{"index":60878,"address":"충남 공주시 제민천1길 67","lat":"36.45203358655203","lng":"127.12321305004136"},{"index":60980,"address":"강원 강릉시 강동면 하시동리 718","lat":"37.74898481568697","lng":"128.9595362414233"},{"index":61051,"address":"서울 송파구 오금동 140-15 ","lat":"37.50162268438749","lng":"127.13825728079011"},{"index":61456,"address":"경기 가평군 가평읍 석봉로 214","lat":"37.83407863198169","lng":"127.5097200941458"},{"index":62117,"address":"부산광역시 서구 서대신동2가 27-2","lat":"35.111487314164016","lng":"129.01547440454706"},{"index":62180,"address":"서울 은평구 증산동 186-8","lat":"37.58332958174997","lng":"126.90652472050145"},{"index":62337,"address":"대전 중구 계룡로881번길 44","lat":"36.32311363926502","lng":"127.41414922941878"},{"index":62704,"address":"경북 경주시 건천리 335-7","lat":"35.848438103418864","lng":"129.1039174678526"},{"index":62772,"address":"강원도 삼척시 원덕읍 호산중앙로9 ","lat":"37.17488796114196","lng":"129.33586351143992"},{"index":62839,"address":"서울 강남구 삼성동 142-7 LG에클라트 A동 1층","lat":"37.506558073854166","lng":"127.05085406351081"},{"index":64847,"address":"인천 남구 참외전로 309","lat":"37.466445315070125","lng":"126.64856214666504"},{"index":65049,"address":"강원도 삼척시 원덕읍 호산중앙로 9 ","lat":"37.17488796114196","lng":"129.33586351143992"},{"index":65205,"address":"서울 서대문구 창천동 52-56 ","lat":"37.55803121236879","lng":"126.93587829121897"},{"index":65752,"address":"서울 서초구 서초동 1604-6","lat":"37.48690382200323","lng":"127.01962440773615"},{"index":65831,"address":"전북 익산시 마동 349-1","lat":"35.93436372984433","lng":"126.96267662028217"},{"index":66520,"address":"경상남도 김해시 진영읍 장등로 42-1","lat":"35.31017799134523","lng":"128.7355998256254"},{"index":66604,"address":"서울 서대문구 창천동 30-8 광신빌딩 306호 ","lat":"37.55577914535934","lng":"126.93666791088714"},{"index":66744,"address":"부산 사상구 주례동693-7","lat":"35.150525755701416","lng":"128.99787641993765"},{"index":67155,"address":"부산시 기장읍 동부리 162-1","lat":"35.24475393596908","lng":"129.21551107518766"},{"index":67220,"address":"서울 중구 을지로6가 18-21 굿모닝시티 9층 4호","lat":"37.566874562030534","lng":"127.00728042229143"},{"index":67300,"address":"서울 관악구 봉천동 1620-3","lat":"37.478532720287404","lng":"126.95716034298326"},{"index":67364,"address":"강원도 춘천시 낙원동 14-2","lat":"37.880653830990774","lng":"127.726582044024"},{"index":67806,"address":"경상북도 울진군 울진읍 읍내리 59-2","lat":"36.992491725236334","lng":"129.40174734289212"},{"index":67918,"address":"부산 동구 초량중로 26","lat":"35.114286998827694","lng":"129.03710061120927"},{"index":68344,"address":"서울 송파구 삼전동 4-9","lat":"37.50588942264332","lng":"127.09025259706155"},{"index":68415,"address":"서울시 마포구 서교동 332-22","lat":"37.5560506790997","lng":"126.92636882430652"},{"index":68472,"address":"서울특별시 마포구 대흥동 12-33","lat":"37.556323279384735","lng":"126.94364353689402"},{"index":68580,"address":"경상남도 사천시 선구동 58-12","lat":"34.927521315865164","lng":"128.07326167589397"},{"index":69027,"address":"경상남도 사천시 선구동 58-12","lat":"34.927521315865164","lng":"128.07326167589397"},{"index":69089,"address":"부산 영도구 대평로 33번길 2","lat":"35.09177212358118","lng":"129.0336633049881"},{"index":69145,"address":"인천 부평구 원적로315번길 29-1","lat":"37.50590344968936","lng":"126.70146095994565"},{"index":69216,"address":"충북 청주시 청원구 내덕동 402-78 ","lat":"36.661145893421235","lng":"127.48944686082018"},{"index":69641,"address":"부산 해운대구 우동 198-16","lat":"35.1675082239399","lng":"129.16254613364075"},{"index":69706,"address":"부산 기장군 일광면 이천리 132-21","lat":"35.27243584843349","lng":"129.25299144291998"},{"index":69729,"address":"부산시 기장군  일광면 일광로 326 번지)","lat":"35.272408746569916","lng":"129.25289839275743"},{"index":69820,"address":"서울 강남구 논현동 13-2 1층","lat":"37.516149991696395","lng":"127.02233322557073"},{"index":69874,"address":"서울 마포구 동교동 178-11","lat":"37.55702900590307","lng":"126.92905691696672"},{"index":69953,"address":"부산 해운대구 좌동 1341-22","lat":"35.17029150020474","lng":"129.16614485341455"},{"index":71651,"address":"서울특별시 성동구 성수일로 12길 27 B-B1","lat":"37.548388148256585","lng":"127.05452630610878"},{"index":71774,"address":"부산 중구 부평동1가 29-27","lat":"35.100627330052866","lng":"129.02686980723536"},{"index":71840,"address":"서울 마포구 연남동 387-6 지하1층","lat":"37.56282222426133","lng":"126.92581434753961"},{"index":72306,"address":"경남 거제시 장승포동 283-11","lat":"34.86776282136831","lng":"128.73017297728734"},{"index":72423,"address":"서울시 종로구 명륜3가 148-1","lat":"37.583550376977385","lng":"126.99793947082694"},{"index":72903,"address":"부산시 중구 부평1길 64 ","lat":"35.102304319107006","lng":"129.02595951578562"},{"index":72979,"address":"서울특별시 은평구 불광1동 281-60 ","lat":"37.6112336777286","lng":"126.93061825088985"},{"index":73041,"address":"강원도 삼척시 근덕면 교가리 366-11","lat":"37.3802730061355","lng":"129.2267806441456"},{"index":73111,"address":"서울특별시 마포구 동교동 172-3","lat":"37.557730583610876","lng":"126.92708697570313"},{"index":74214,"address":"강원도 삼척시 근덕면 교가길 14 ","lat":"37.38026957479994","lng":"129.2267715116814"},{"index":74392,"address":"경기도 부천시 상동 611-5 ","lat":"37.49054453081664","lng":"126.74347292935232"},{"index":74542,"address":"강원도 춘천시 효자3동 641-3 ","lat":"37.8770296440489","lng":"127.73568026231335"},{"index":74697,"address":"대구 중구 남산2동 249-2 대한적십자경북지사 뒤편","lat":"35.86462280152087","lng":"128.58814994365304"},{"index":75343,"address":"경남 김해시 관동동 1088-3","lat":"35.177437514762524","lng":"128.81235538959965"},{"index":75409,"address":"서울 강남구 신사동 666 2층","lat":"37.524680041325794","lng":"127.03876631339236"},{"index":75462,"address":"서울시 구로구 구로동 604-1 구로공구상가 a블럭 4-223","lat":"37.50419740926077","lng":"126.87952569092553"},{"index":75541,"address":"서울 마포구 서교동 332-8","lat":"37.555492092095555","lng":"126.9264191702058"},{"index":75608,"address":"부산 동래구 칠산동 289-3","lat":"35.2012770491644","lng":"129.08962037363634"},{"index":75973,"address":"서울 동작구 상도로30길 39","lat":"37.50479616523025","lng":"126.94229798684489"},{"index":76048,"address":"인천 계양구 작전동 905-6번지 유니온프라자 4층","lat":"37.53267331485262","lng":"126.73599279575616"},{"index":76108,"address":"서울 성동구 금호동1가 633 ","lat":"37.551857458399574","lng":"127.02711503587442"},{"index":76176,"address":"인천광역시 중구 전동 18-1","lat":"37.47629872811308","lng":"126.62853723041893"},{"index":76220,"address":"인천 강화군 강화읍 관청리 529","lat":"37.747873965800395","lng":"126.48413196448203"},{"index":76266,"address":"경기 고양시 일산동구 성석동 601-3","lat":"37.699866332633256","lng":"126.79945404541115"},{"index":77005,"address":"서울시 관악구 봉천동 1612-51 ","lat":"37.478579482321344","lng":"126.95691159017372"},{"index":77070,"address":"전남 여수시 돌산읍 우두리 1119-5","lat":"34.71596463217241","lng":"127.75253515313456"},{"index":77128,"address":"전남 보성군 회천면 율포리 470-1","lat":"34.66974718825323","lng":"127.08589748491224"},{"index":77222,"address":"서울특별시 마포구 망원동 395-4 1층","lat":"37.553931027342266","lng":"126.9054206879539"},{"index":77297,"address":"경남 합천군 합천읍 합천리 590-4","lat":"35.56704849510809","lng":"128.16022383989142"},{"index":77373,"address":"서울특별시 용산구 이태원로 10 ","lat":"37.53483621428964","lng":"126.97486432800011"},{"index":77463,"address":"서울특별시 동작구 본동 187-4","lat":"37.51236528148577","lng":"126.9518520706728"},{"index":77548,"address":"서울 도봉구 창동 14","lat":"37.65367228881873","lng":"127.0509678208322"},{"index":77617,"address":"서울 강남구 대치 1동 1021-2 동서빌딩 2층","lat":"37.49805570814997","lng":"127.05958311203322"},{"index":78158,"address":"부산시 사하구 하단동 1179-7 ","lat":"35.09923346379561","lng":"128.95638533216032"},{"index":78269,"address":"서울특별시 영등포구 당산동5가 11-34 삼성타운 1층 126호","lat":"37.5318637954132","lng":"126.90107239523122"},{"index":78334,"address":"서울특별시 광진구 군자동 48-17","lat":"37.55541524579128","lng":"127.07542321532513"},{"index":78775,"address":"서울 종로구 봉익동 22-2번지 대흥사약국건물 ","lat":"37.57251115784963","lng":"126.9922209526744"},{"index":78845,"address":"서울 강남구 율현동 141-16","lat":"37.47017172160278","lng":"127.1169243411156"},{"index":78928,"address":"충북 청주시 상당구 남문로2가 87","lat":"36.63308827936598","lng":"127.48860297023968"},{"index":78984,"address":"서울 강남구 대치동 895-1","lat":"37.50425726009836","lng":"127.05411419237352"},{"index":79917,"address":"부산 북구 구포2동 1060-268< 금룡(금용) >","lat":"35.20545208430337","lng":"128.99667846192813"},{"index":80005,"address":"서울특별시 서대문구 이화여대 1안길 25, 1층 3호","lat":"37.557480191907835","lng":"126.94371057145526"},{"index":80086,"address":"서울 서대문구 연희동 353-94","lat":"37.561828571063465","lng":"126.92749949564568"},{"index":80240,"address":"서울 강동구 양재대로 112길 57 <강동우체국>","lat":"37.5363774663454","lng":"127.14320473409843"},{"index":80399,"address":"경기도 포천시 내촌면 음현리 396-1번지 <백광공병>","lat":"37.768296190379665","lng":"127.2285509341713"},{"index":80478,"address":"부산광역시 남구 용호동 538-41 <부산 성모병원>","lat":"35.109698816991596","lng":"129.10995328695935"},{"index":80888,"address":"경북 경주시 황오동 124-19","lat":"35.84200490657789","lng":"129.21750131761002"},{"index":80955,"address":"서울특별시 서초구 잠원동 61-17","lat":"37.51317829861763","lng":"127.01077707339473"},{"index":81024,"address":"경기 이천시 창전동 160-28","lat":"37.27985021938796","lng":"127.444911344581"},{"index":81387,"address":"서울 서대문구 연희동 190-4 ","lat":"37.56719201631968","lng":"126.92867601276397"},{"index":81444,"address":"서울 성동구 마장동 569-2 ","lat":"37.567770170132185","lng":"127.03640254668687"},{"index":81500,"address":"서울 서대문구 연희동 353-94 ","lat":"37.561828571063465","lng":"126.92749949564568"},{"index":81809,"address":"경기도 광명시 광명2동 103-12 1층","lat":"37.4821738215525","lng":"126.85741886723069"},{"index":82414,"address":"울산 동구 동부동 328","lat":"35.54277655966169","lng":"129.42915034852595"},{"index":82481,"address":"충남 천안시 동남구 사직동 168-8 <평양냉면>","lat":"36.802178387750985","lng":"127.1496922467326"},{"index":83940,"address":"인천시 남구 학익동 25-12","lat":"37.44484342856724","lng":"126.67005751313057"},{"index":84050,"address":"전북 남원시 하갈치길 20","lat":"35.44588840770864","lng":"127.41876643697273"},{"index":84127,"address":"경기 광명시 광명동 103-12 1층","lat":"37.4821738215525","lng":"126.85741886723069"},{"index":84203,"address":"경기 의왕시 사그내4길 49","lat":"37.34842736105852","lng":"126.97653375702382"},{"index":84266,"address":"경기도 평택시 평택동 185-579 AK플라자 평택점 7F ","lat":"36.990895405408104","lng":"127.08591106513455"},{"index":84479,"address":"서울특별시 종로구 예지동 47","lat":"37.56993093053245","lng":"126.99719728510871"},{"index":84569,"address":"경기 성남시 분당구 율동 200-3 ","lat":"37.390340473052774","lng":"127.15551531273664"},{"index":84693,"address":"서울 성동구 성수1가 2동 13-441번지","lat":"37.54979292794413","lng":"127.0480180902917"},{"index":84760,"address":"서울특별시 양천구 목동로 11길 2","lat":"37.523534685195344","lng":"126.86450327031164"},{"index":84825,"address":"서울 은평구 가좌로7길 9 ","lat":"37.58657237057236","lng":"126.92018410731573"},{"index":84889,"address":"서울시 서초구 우면동 59  동양고속아파트상가 201호","lat":"37.47135888878137","lng":"127.02356792522042"},{"index":84989,"address":"인천 부평구 부평5동 152-9 ","lat":"37.493241723566896","lng":"126.72642042070362"},{"index":85057,"address":"서울 마포구 서교동 333-11","lat":"37.55517886284221","lng":"126.92693101982019"},{"index":85119,"address":"서울 마포구 상수동 93-111, 2층","lat":"37.54882576612797","lng":"126.92244237478806"},{"index":85256,"address":"대구 광역시 수성구 성동 523-5","lat":"35.84301209834467","lng":"128.7209371608759"},{"index":85463,"address":"서울 중구 예관동 128-2","lat":"37.56324914840144","lng":"126.99736052207258"},{"index":86413,"address":"서울특별시 서대문구 이화여대 1안길 25 1층 3호","lat":"37.557480191907835","lng":"126.94371057145526"},{"index":86494,"address":"서울특별시 서대문구 홍제동 241-100","lat":"37.58976569950446","lng":"126.94598700371616"},{"index":86566,"address":"부산광역시 연제구 연산동 413-7","lat":"35.18700761114471","lng":"129.10308131998534"},{"index":86629,"address":"서울특별시 중구 오장동 139-11)","lat":"37.564961056746355","lng":"127.00182911403783"},{"index":86685,"address":"서울시 동대문구 회기동 75","lat":"37.59005010223649","lng":"127.05468802710296"},{"index":86747,"address":"부산 중구 대청로141번길 18-3","lat":"35.104484696187","lng":"129.0352380288719"},{"index":86819,"address":"부산 중구 창선동1가 13-1","lat":"35.09965795398995","lng":"129.02986783802572"},{"index":86879,"address":"충남 서산시 시장3길 12-6(C동)","lat":"36.78209779981103","lng":"126.4559326007352"},{"index":86936,"address":"서울특별시 용산구 이태원로 10 ","lat":"37.53483621428964","lng":"126.97486432800011"},{"index":87001,"address":"전라남도 구례군 구례읍 봉동리 296-1","lat":"35.20994589830818","lng":"127.46342680164521"},{"index":87077,"address":"서울 중구 신당동 131-2","lat":"37.56493428750798","lng":"127.01916494285751"},{"index":87145,"address":"서울특별시 서대문구 이화여대 5길 5","lat":"37.558313493395154","lng":"126.94537139294879"},{"index":87216,"address":"인천 남동구 소래역남로 16번길 75","lat":"37.40001725263798","lng":"126.73334175365412"},{"index":87666,"address":"서울 강남구 대치동 950-1","lat":"37.506948880839566","lng":"127.0625895938041"},{"index":87782,"address":"부산 사하구 사리로 56-1 (괴정동)","lat":"35.10489382043937","lng":"128.99874452433158"},{"index":87859,"address":"부산 중구 대청로141번길 18-3","lat":"35.104484696187","lng":"129.0352380288719"},{"index":87922,"address":"경북 경산시 남천면 삼성리 245-2","lat":"35.764547040599076","lng":"128.72883323518664"},{"index":88346,"address":"울산 울주군 언양읍 반천리 548-1","lat":"35.559123084013834","lng":"129.18428518994224"},{"index":88419,"address":"서울시 강남구 신사동 559-30 B01","lat":"37.52002370823177","lng":"127.02529811968284"},{"index":88471,"address":"부산 중구 대청로141번길 18-3","lat":"35.104484696187","lng":"129.0352380288719"},{"index":88543,"address":"서초구 서초대로 64길 50","lat":"37.49345568764088","lng":"127.02114139054106"},{"index":88973,"address":"서울 성북구 동선동3가 244","lat":"37.5916828970823","lng":"127.01979681961768"},{"index":89023,"address":"대구시 동구 서호동 91-10 ","lat":"35.869102686228","lng":"128.71025747628116"},{"index":89083,"address":"서울 중구 예관동 128-2","lat":"37.56324914840144","lng":"126.99736052207258"},{"index":89632,"address":"부산 영도구 영선동4가 261-1","lat":"35.08051111255378","lng":"129.04266252674435"},{"index":89699,"address":"서울특별시 강남구 압구정로72길 12","lat":"37.52572303536646","lng":"127.04488936385077"},{"index":89761,"address":"서울 강남구 논현로150길 8","lat":"37.518999247692754","lng":"127.02928406218463"},{"index":89823,"address":"서울시 중구 주교동 153-1","lat":"37.56829832891267","lng":"126.99729695594561"},{"index":90151,"address":"경남 창원시 진해구 송학동 36-10","lat":"35.150861604315985","lng":"128.66317664440587"},{"index":90215,"address":"부산 중구 창선동1가 13-1","lat":"35.09965795398995","lng":"129.02986783802572"},{"index":90268,"address":"경기도 고양시 덕양구 토당동 665-14","lat":"37.62315453765264","lng":"126.8066788709605"},{"index":90709,"address":"부산시 부산진구 부전동 519-56","lat":"35.155129275937135","lng":"129.05579779663952"},{"index":90781,"address":"서울 중구 을지로 194","lat":"37.56653961505292","lng":"126.99952007381347"},{"index":91263,"address":"충남 서산시 시장3길 12-6(C동)","lat":"36.78209779981103","lng":"126.4559326007352"},{"index":91335,"address":"경기 성남시 분당구 율동 200-3 ","lat":"37.390340473052774","lng":"127.15551531273664"},{"index":91405,"address":"서울 은평구 신사동 23-5","lat":"37.598703218233375","lng":"126.91487610368031"},{"index":91467,"address":"서울특별시 서초구 서초동 1317-13 서초빌딩 1층","lat":"37.49843902315862","lng":"127.02629052766348"},{"index":91986,"address":"부산 중구 부평동1가 2-25","lat":"35.10281646881383","lng":"129.0270205152649"},{"index":92111,"address":"서울특별시 서대문구 이화여대 5길 5","lat":"37.558313493395154","lng":"126.94537139294879"},{"index":92579,"address":"서울 마포구 서교동 333-11","lat":"37.55517886284221","lng":"126.92693101982019"},{"index":92620,"address":"충남 금산군 군북면 외부새터길 30","lat":"36.14469116010472","lng":"127.4968719473137"},{"index":92689,"address":"서울시 구로구 구로동 235-2 에이스하이엔드타워 1차 1303호","lat":"37.4815342384273","lng":"126.89343702236329"},{"index":92791,"address":"부산 중구 부평동1가 2-25","lat":"35.10281646881383","lng":"129.0270205152649"},{"index":92854,"address":"서울 성동구 성수동1가 656-1069 1층","lat":"37.547184892834224","lng":"127.04482075471095"},{"index":93372,"address":"서울특별시 서대문구 이화여대 1안길 25, 1층 3호","lat":"37.557480191907835","lng":"126.94371057145526"},{"index":93458,"address":"서울특별시 종로구 예지동 47","lat":"37.56993093053245","lng":"126.99719728510871"},{"index":93533,"address":"서울특별시 서대문구 홍제동 241-100","lat":"37.58976569950446","lng":"126.94598700371616"},{"index":93619,"address":"서울특별시 강동구 암사1동 472-8","lat":"37.55188736227307","lng":"127.13230238646092"},{"index":94466,"address":"서울시 용산구 서빙고로 69 파크타워 106동 지하상가","lat":"37.52371008484364","lng":"126.9723521523727"},{"index":94530,"address":"서울 관악구 관악로 14길 98","lat":"37.47780493430699","lng":"126.9577983951707"},{"index":94576,"address":"부산광역시 연제구 연산동 413-7","lat":"35.18700761114471","lng":"129.10308131998534"},{"index":94608,"address":"인천 부평구 부평5동 152-9","lat":"37.493241723566896","lng":"126.72642042070362"},{"index":94673,"address":"충청남도 서산시 해미면 읍성마을 4길 24","lat":"36.710686403445436","lng":"126.54616131044519"},{"index":94726,"address":"인천 남동구 소래역남로16번길 75","lat":"37.40001725263798","lng":"126.73334175365412"},{"index":94774,"address":"전라남도 구례군 구례읍 봉동리 296-1","lat":"35.20994589830818","lng":"127.46342680164521"},{"index":94835,"address":"서울특별시 중구 오장동 139-11) 내 위치","lat":"37.564961056746355","lng":"127.00182911403783"},{"index":95378,"address":"서울특별시 종로구 신문로 2가 15","lat":"37.568882032692464","lng":"126.97013950679697"},{"index":95463,"address":"대구 광역시 수성구 성동 523-5","lat":"35.84301209834467","lng":"128.7209371608759"},{"index":95542,"address":"부산 중구 흑교로 60","lat":"35.104776793114546","lng":"129.02490218829928"},{"index":95610,"address":"경기도 부천시 자유로 33 자유시장 내 B-131","lat":"37.484112824392014","lng":"126.77994268816379"},{"index":96127,"address":"충북 청주시 상당구 남문로2가 82-2","lat":"36.63354305991846","lng":"127.48845378087707"},{"index":96191,"address":"인천시 남구 학익동 25-12","lat":"37.44484342856724","lng":"126.67005751313057"},{"index":96605,"address":"경북 경주시 교촌길 30 ","lat":"35.83045220809807","lng":"129.21405503567632"},{"index":96671,"address":"서울 강남구 논현동 145-10 1층","lat":"37.509467650580284","lng":"127.02481047202767"},{"index":97108,"address":"경기도 의왕시 내손중앙로 51","lat":"37.38610912303247","lng":"126.98122845494393"},{"index":97237,"address":"서울시 동대문구 회기동 75","lat":"37.59005010223649","lng":"127.05468802710296"},{"index":97655,"address":"인천 부평구 부평5동 152-9","lat":"37.493241723566896","lng":"126.72642042070362"},{"index":97723,"address":"전북 남원시 하갈치길 20","lat":"35.44588840770864","lng":"127.41876643697273"},{"index":97782,"address":"서울 동대문구 이문1동 287-18","lat":"37.59549285221797","lng":"127.06051676521999"},{"index":97847,"address":"부산 해운대구 중동1로 32-1","lat":"35.16238260479751","lng":"129.16274398203333"},{"index":97902,"address":"부산 연제구 연산2동 2026-25번지","lat":"35.17279707564081","lng":"129.0825036560826"},{"index":98401,"address":"서울특별시 종로구 누상동 95","lat":"37.58068048022496","lng":"126.9664939122978"},{"index":98478,"address":"서울특별시 마포구 망원동 485-37","lat":"37.557597891383416","lng":"126.90744870472993"},{"index":98529,"address":"서울특별시 마포구 와우산로21길 19-16 NS TOWER 3층","lat":"37.55182434854933","lng":"126.9225343286432"},{"index":98667,"address":"충청남도 서산시 해미면 읍성마을 4길 24","lat":"36.710686403445436","lng":"126.54616131044519"},{"index":98748,"address":"부산 동래구 차밭골로 44","lat":"35.217712872520394","lng":"129.07733444749275"},{"index":99205,"address":"부산광역시 중구 창선동1가 13-1 ","lat":"35.09965795398995","lng":"129.02986783802572"},{"index":99258,"address":"부산시 동래구 수안동 9-33","lat":"35.19840125030095","lng":"129.08414530021687"},{"index":99332,"address":"서울특별시 마포구 상수동 95-1 번지 5층","lat":"37.54822967601106","lng":"126.92582428550938"},{"index":99396,"address":"서울 금천구 가산동 327-32 대륭테크노타운 12층 1002호","lat":"37.469949380140434","lng":"126.8842019261636"},{"index":99489,"address":"서울 강남구 도곡동 959-15","lat":"37.48602400628332","lng":"127.03658898242433"},{"index":99563,"address":"경기 이천시 관고동 156-2","lat":"37.29026073290176","lng":"127.42580555758967"},{"index":99611,"address":"경기 광주시 초월읍 지월리 715-2","lat":"37.41791079494689","lng":"127.27790076492079"},{"index":100104,"address":"서울 종로구 통인동 118-3","lat":"37.57976627797599","lng":"126.97105895539427"},{"index":100244,"address":"서울시 서초구 우면동 59 동양고속아파트상가 201호","lat":"37.47135888878137","lng":"127.02356792522042"},{"index":100305,"address":"서울특별시 성북구 월곡로 10길 176 1층 ","lat":"37.59231607303632","lng":"127.03882854494985"},{"index":100381,"address":"부산 사상구 낙동대로 772번길 9","lat":"35.129376082820976","lng":"128.9715244478625"},{"index":100889,"address":"서울 마포구 상수동 93-111, 2층","lat":"37.54882576612797","lng":"126.92244237478806"},{"index":100969,"address":"충청북도 진천군 덕산면 초금로 634","lat":"36.90100340933158","lng":"127.5106091651822"},{"index":101049,"address":"서울 양천구 신월4동 427-2","lat":"37.52536136196026","lng":"126.84093770917984"},{"index":101123,"address":"부산 해운대구 세실로 80 ","lat":"35.17294096200817","lng":"129.17799330597606"},{"index":101577,"address":"인천 남동구 소래역남로16번길 75","lat":"37.40001725263798","lng":"126.73334175365412"},{"index":101691,"address":"경기도 의정부시 산단로68번길 29 지테크","lat":"37.74158068674882","lng":"127.079850432466"},{"index":101760,"address":"서울 은평구 가좌로7길 9 ","lat":"37.58657237057236","lng":"126.92018410731573"},{"index":101834,"address":"서울 관악구 관악로 14길 98","lat":"37.47780493430699","lng":"126.9577983951707"},{"index":102275,"address":"부산시 해운대구 중1동 1270-3","lat":"35.164013664725346","lng":"129.16828715309512"},{"index":102345,"address":"인천 남동구 소래역남로16번길 75","lat":"37.40001725263798","lng":"126.73334175365412"},{"index":102413,"address":"서울특별시 용산구 이태원로 10 ","lat":"37.53483621428964","lng":"126.97486432800011"},{"index":102886,"address":"서울특별시 중구 오장동 139-11 (중부시장 내 위치)","lat":"37.564961056746355","lng":"127.00182911403783"},{"index":102999,"address":"전라남도 구례군 구례읍 봉동리 296-1","lat":"35.20994589830818","lng":"127.46342680164521"},{"index":103089,"address":"서울특별시 성동구 성수동1가 668-31","lat":"37.54681753437352","lng":"127.0441596785952"},{"index":103604,"address":"서울특별시 관악구 행운동 20-20","lat":"37.485409273811705","lng":"126.9573101887412"},{"index":103700,"address":"서울 성동구 왕십리로 215-1 ","lat":"37.55676861798381","lng":"127.0429115673791"},{"index":103749,"address":"경상북도 경산시 정평동 230-26","lat":"35.83115360259066","lng":"128.72969741613545"},{"index":103819,"address":"서울 마포구 상수동 313-3","lat":"37.54847917884449","lng":"126.92152837850496"},{"index":103887,"address":"서울특별시 성동구 성수일로 12길 27 B-B1","lat":"37.548388148256585","lng":"127.05452630610878"},{"index":103952,"address":"경기도 성남시 분당구 율동 200-3 2층 ","lat":"37.390340473052774","lng":"127.15551531273664"},{"index":104007,"address":"경기도 고양시 일산 서구 덕이동 446-3번지","lat":"37.69096873896683","lng":"126.7539995140381"},{"index":104522,"address":"서울특별시 송파구 송파동 57","lat":"37.510963594459334","lng":"127.10779015440099"},{"index":104566,"address":"서울특별시 중구 신당동 131-2","lat":"37.56493428750798","lng":"127.01916494285751"},{"index":104610,"address":"서울특별시 마포구 서교동 378-1 1층","lat":"37.552901980248485","lng":"126.91727762255029"},{"index":104681,"address":"서울특별시 종로구 충신동 177번지 ","lat":"37.573924042597106","lng":"127.00557403269701"},{"index":104728,"address":"서울특별시 양천구 목동로11길 2 ","lat":"37.523534685195344","lng":"126.86450327031164"},{"index":104777,"address":"서울특별시 마포구 망원동 395-4 1층","lat":"37.553931027342266","lng":"126.9054206879539"},{"index":105272,"address":"부산광역시 중구 부평동 3가 59-21 ","lat":"35.10085084133019","lng":"129.02384887598473"},{"index":105346,"address":"서울특별시 성북구 삼선교로 16길 116","lat":"37.583211129396076","lng":"127.01077810367254"},{"index":105399,"address":"서울특별시 강남구 강남대로 520 영동빌딩","lat":"37.50867872703232","lng":"127.0230503327401"},{"index":105454,"address":"경기도 용인시 기흥구 언남동 486번지","lat":"37.29510245583865","lng":"127.12437615197202"},{"index":105531,"address":"충남 서산시 석림동 636-8","lat":"36.775523714850046","lng":"126.46076434286073"},{"index":105628,"address":"서울특별시 서초구 신반포로 176 LL층 ","lat":"37.503934456230404","lng":"127.00241119724721"},{"index":106024,"address":"서울 광진구 군자로3길 23","lat":"37.54425329685715","lng":"127.07019772141224"},{"index":106083,"address":"울산 중구 태화동126-1 (태화로237)","lat":"35.55286444044737","lng":"129.30134650965692"},{"index":106165,"address":"대전 유성구 상대동 454-7 ","lat":"36.34741841398998","lng":"127.3353982623359"},{"index":106712,"address":"대전 유성구 상대동 454-7","lat":"36.34741841398998","lng":"127.3353982623359"},{"index":106799,"address":"서울특별시 동작구 사당동 127-42","lat":"37.488298253177035","lng":"126.97848466404089"},{"index":106849,"address":"인천광역시 부평구 부평동 542-76 ","lat":"37.49420046439526","lng":"126.72182133070964"},{"index":106904,"address":"경상북도 김천시 부곡동 437-4","lat":"36.125681666549106","lng":"128.10668789461732"},{"index":106992,"address":"서울 강남구 삼성로 427 삼송빌딩 ","lat":"37.504872023677166","lng":"127.05734468516063"},{"index":107501,"address":"충청북도 청주시 흥덕구 가경동 1198번지","lat":"36.62764669911272","lng":"127.43627707531533"},{"index":107570,"address":"경기도 안산시 단원구 성곡동 635-7 반월공단 608블럭 4-1 ","lat":"37.31803163156524","lng":"126.75177249202467"},{"index":107662,"address":"경상북도 경주시 교동 69번지 ","lat":"35.83088103220795","lng":"129.2162090861691"},{"index":107711,"address":"전주시 완산구 삼천동 601-11번지","lat":"35.79897422393172","lng":"127.1195415781166"},{"index":107820,"address":"서울시 용산구 청파동2가 71-57 ","lat":"37.54464834324844","lng":"126.96836129425995"},{"index":108296,"address":"서울특별시 종로구 예지동 2-1 ","lat":"37.570284146995725","lng":"126.99871409565736"},{"index":108377,"address":"충남 당진시 신평면 서해안고속도로 275","lat":"36.94514243023917","lng":"126.80713017471288"},{"index":108535,"address":"부산시 진구 범천1동 841-291","lat":"35.14294023422437","lng":"129.06289438521608"},{"index":108687,"address":"경기도 남양주시 홍유릉로 248번길 39 다남프라자 ","lat":"37.627254994786945","lng":"127.20241243176518"},{"index":108787,"address":"경기도 남양주시 퇴계원면 퇴계원리 90 도심빌딩","lat":"37.65523871868032","lng":"127.1440673183502"},{"index":108849,"address":"경기도 남양주시 순화궁로 116 남양주 별내 노블레스","lat":"37.643032769650524","lng":"127.12111966767921"},{"index":108911,"address":"경기도 의정부시 용현동 529-7","lat":"37.741368125825744","lng":"127.07975036302567"},{"index":108968,"address":"서울 중랑구 양원역로 50 송곡고등학교","lat":"37.60584696722975","lng":"127.10646373713422"},{"index":109313,"address":"충청남도 서산시 동문동 201-11 ","lat":"36.778089104368476","lng":"126.4653436210134"},{"index":109376,"address":"경상북도 경산시 정평동 230-26","lat":"35.83115360259066","lng":"128.72969741613545"},{"index":109920,"address":"경기도 남양주시 도농로중촌2길 21-7","lat":"37.60956208523132","lng":"127.1556489831999"},{"index":109977,"address":"경기도 남양주시 조안면 삼봉리 763-1 ","lat":"37.60191201763074","lng":"127.31300067813375"},{"index":110052,"address":"서울 성북구 성북동 100-1 ","lat":"37.59308286354271","lng":"126.99719641707686"},{"index":110526,"address":"서울특별시 영등포구 국회대로 76길 10번지","lat":"37.530657420139875","lng":"126.92155610409506"},{"index":110604,"address":"경기도 남양주시 진접읍 금곡리 1081-2번지","lat":"37.712023425053225","lng":"127.1866700008449"},{"index":110712,"address":"서울 성동구 성수1가 2동 13-441번지","lat":"37.54979292794413","lng":"127.0480180902917"},{"index":111211,"address":"부산 서구 토성동4가 16-5","lat":"35.097384166761245","lng":"129.02270614431734"},{"index":111281,"address":"서울시 용산구 서빙고로 69 파크타워 106동 지하상가","lat":"37.52371008484364","lng":"126.9723521523727"},{"index":111364,"address":"부산 해운대구 해운대로383번길 26","lat":"35.1701219866023","lng":"129.13938900809399"},{"index":111856,"address":"서울특별시 마포구 연남동 227-15 ","lat":"37.56238671339021","lng":"126.92672930473243"},{"index":111900,"address":"서울특별시 마포구 연남동 227-15","lat":"37.56238671339021","lng":"126.92672930473243"},{"index":111953,"address":"서울특별시 마포구 상수동 330-10 초이스빌 1층","lat":"37.54680801292264","lng":"126.92318227029041"},{"index":112012,"address":"서울 마포구 망원동 450-3","lat":"37.55778405910336","lng":"126.89723539550604"},{"index":112082,"address":"서울특별시 광진구 군자동 48-17","lat":"37.55541524579128","lng":"127.07542321532513"},{"index":112545,"address":"경상북도 경산시 중방동 873-22 1층","lat":"35.82224620346583","lng":"128.7349921113127"},{"index":112769,"address":"서울시 마포구 대흥동 801-13 1층","lat":"37.54415738426489","lng":"126.938786976405"},{"index":113191,"address":"경기도 수원시 팔달구 매산로 20번길 28","lat":"37.26640297686808","lng":"127.00306200090817"},{"index":113252,"address":"서울 중구 신당동 131-2","lat":"37.56493428750798","lng":"127.01916494285751"},{"index":113314,"address":"서울특별시 강서구 화곡동 1021-4 에스더반찬","lat":"37.54429731740569","lng":"126.83606344508026"},{"index":113391,"address":"서울특별시 강남구 논현동 243-5번지 1층","lat":"37.515824647121875","lng":"127.03977975364269"},{"index":113879,"address":"서울 마포구 동교동 153-3","lat":"37.558986694960666","lng":"126.92441473470079"},{"index":113927,"address":"부산광역시 중구 남포동5가 24-1","lat":"35.09854635214426","lng":"129.02822620553135"},{"index":113978,"address":"서울 중구 신당동 131-2","lat":"37.56493428750798","lng":"127.01916494285751"},{"index":114047,"address":"서울특별시 용산구 한강로2가 218 1층","lat":"37.526688926104406","lng":"126.96594337580747"},{"index":114434,"address":"대구광역시 남구 봉덕2동 1170-19 ","lat":"35.833746230648835","lng":"128.60197368634343"},{"index":114502,"address":"부산광역시 영도구 봉래동3가 19-1 ","lat":"35.092803421608345","lng":"129.04371471722985"},{"index":114578,"address":"서울특별시 송파구 석촌동 183-3 지산빌딩 203호 ","lat":"37.50804767131108","lng":"127.10407622538334"},{"index":115026,"address":"서울 중구 황학동 737","lat":"37.5659362641731","lng":"127.0187350805021"},{"index":115088,"address":"서울시 도봉구 쌍문동 100-2번지","lat":"37.647076520653115","lng":"127.0321262871625"},{"index":115851,"address":"서울특별시 영등포구 당산동5가 11-34 삼성타운 1층 126호","lat":"37.5318637954132","lng":"126.90107239523122"},{"index":115922,"address":"서울특별시 동작구 본동 187-4","lat":"37.51236528148577","lng":"126.9518520706728"},{"index":115983,"address":"서울특별시 서대문구 연희동 124-43","lat":"37.56895881692558","lng":"126.93009604191323"},{"index":116044,"address":"서울 영등포구 여의대방로43나길 4","lat":"37.50663314842713","lng":"126.92166720487349"},{"index":116195,"address":"경기도 고양시 일산 서구 덕이동 446-3번지","lat":"37.69096873896683","lng":"126.7539995140381"},{"index":116293,"address":"경기도 성남시 분당구 정자동 15-3 폴라리스빌딩 ","lat":"37.37028662857288","lng":"127.10748921161185"},{"index":116369,"address":"경기도 평택시 서정동 775-17","lat":"37.07146202370051","lng":"127.06388966845803"},{"index":116417,"address":"서울특별시 종로구 봉익동 11-20 덕촌빌딩 2F","lat":"37.573044571047625","lng":"126.99259672113368"},{"index":116748,"address":"서울특별시 종로구 누하동 219-3","lat":"37.57918208494352","lng":"126.96966897167788"},{"index":116808,"address":"대전광역시 중구 중촌동 410-22 ","lat":"36.33553708652374","lng":"127.41263781076421"},{"index":116870,"address":"경기도 평택시 평택동 185-579 AK플라자 평택점 7F ","lat":"36.990895405408104","lng":"127.08591106513455"},{"index":117245,"address":"부산 북구 구포2동 1060-268","lat":"35.20545208430337","lng":"128.99667846192813"},{"index":117300,"address":"서울특별시 강남구 청담동 1-1 퍼스트 빌딩 2층","lat":"37.52293534558301","lng":"127.03983330332424"},{"index":117369,"address":"서울특별시 마포구 망원동 475-42","lat":"37.55987199581212","lng":"126.90294585466656"},{"index":117427,"address":"경기도 고양시 일산 서구 덕이동 446-3번지","lat":"37.69096873896683","lng":"126.7539995140381"},{"index":117753,"address":"서울특별시 송파구 송파동 57","lat":"37.510963594459334","lng":"127.10779015440099"},{"index":117813,"address":"부산 북구 구포2동 1060-268","lat":"35.20545208430337","lng":"128.99667846192813"},{"index":118227,"address":"서울 영등포구 여의대방로43나길 4","lat":"37.50663314842713","lng":"126.92166720487349"},{"index":118296,"address":"서울특별시 마포구 서교동 367-2","lat":"37.55153856513304","lng":"126.92092312035695"},{"index":118364,"address":"서울특별시 광진구 군자동 1-11번지 B1  ","lat":"37.55454520233067","lng":"127.07770841223073"},{"index":118653,"address":"서울 마포구 도화동 340","lat":"37.54006077740815","lng":"126.94874753302976"},{"index":118710,"address":"부산광역시 연제구 연산동 413-7","lat":"35.18700761114471","lng":"129.10308131998534"},{"index":118753,"address":"경기 의왕시 사그내4길 49","lat":"37.34842736105852","lng":"126.97653375702382"},{"index":119785,"address":"서울 강남구 대치 1동 1021-2 동서빌딩 2층","lat":"37.49805570814997","lng":"127.05958311203322"},{"index":119865,"address":"서울특별시 도봉구 창동 1-10","lat":"37.654775161388194","lng":"127.05080538819651"},{"index":119937,"address":"전라북도 완주군 소양면 해월리 377-19","lat":"35.86548388274825","lng":"127.25040787085004"},{"index":120096,"address":"서울특별시 용산구 남영동 3-4","lat":"37.54509283828629","lng":"126.97322688751203"},{"index":120161,"address":"서울 강동구 명일2동 54 한양아파트 상가 1층","lat":"37.55046120299118","lng":"127.15515028907973"},{"index":120241,"address":"서울시 광진구 자양동4동 44-2 스낵코너 노룬산분식앞 ","lat":"37.53648612507303","lng":"127.06486358855719"},{"index":120325,"address":"서울시 중랑구 망우동 344-7","lat":"37.602116285779076","lng":"127.1030611014473"},{"index":120400,"address":"부산광역시 북구 화명동 1130-9","lat":"35.22940826394932","lng":"129.01345409115453"},{"index":120473,"address":"경남 합천군 합천읍 합천리 590-4","lat":"35.56704849510809","lng":"128.16022383989142"},{"index":120544,"address":"서울특별시 강남구 대치동 889-5 ","lat":"37.50440696314353","lng":"127.04970354642872"},{"index":121011,"address":"경상남도 사천시 사천읍 정의리 393-8","lat":"35.084232486017285","lng":"128.08833244852804"},{"index":121075,"address":"경기도 성남시 수정구 신흥동 5493-5","lat":"37.44369736756332","lng":"127.14231372094594"},{"index":121396,"address":"서울특별시 용산구 남영동 3-4","lat":"37.54509283828629","lng":"126.97322688751203"},{"index":121771,"address":"서울특별시 서대문구 연희동 124-43","lat":"37.56895881692558","lng":"126.93009604191323"},{"index":122353,"address":"경기도 김포시 중구로 15","lat":"37.62297380382009","lng":"126.71116100026747"},{"index":122404,"address":"서울특별시 마포구 연남동 228-11","lat":"37.56324387603557","lng":"126.92579129240767"},{"index":122460,"address":"경상북도 경주시 교동 69번지","lat":"35.83088103220795","lng":"129.2162090861691"},{"index":122512,"address":"서울 종로구 부암동 258-3","lat":"37.59288687521181","lng":"126.96560524627377"},{"index":122566,"address":"강원 춘천시 효자1동 679-39","lat":"37.872010273026916","lng":"127.72571066074046"},{"index":122622,"address":"전라북도 군산시 미원동 332","lat":"35.97822616906106","lng":"126.71579551000738"},{"index":122679,"address":"서울특별시 강남구 역삼동 819","lat":"37.49920624019152","lng":"127.02819972918998"},{"index":122732,"address":"경상남도 창원시 의창구 명서동 75-15","lat":"35.248648602991565","lng":"128.6465393388309"},{"index":122794,"address":"충청북도 제천시 의림동 46-7","lat":"37.13931849780404","lng":"128.20838514602593"},{"index":122852,"address":"대전광역시 동구 중동 3-30","lat":"36.33360307039553","lng":"127.4275346410009"},{"index":123173,"address":"전라북도 정읍시 시기동 356-1","lat":"35.564942397887926","lng":"126.85590417099533"},{"index":123237,"address":"서울시 중랑구 망우동 344-7","lat":"37.602116285779076","lng":"127.1030611014473"},{"index":123295,"address":"서울시 금천구 독산동 999-12번지 3층","lat":"37.46826875011692","lng":"126.89056198638522"},{"index":123603,"address":"서울시 광진구 자양동4동 44-2 스낵코너 노룬산분식앞 ","lat":"37.53648612507303","lng":"127.06486358855719"},{"index":123672,"address":"서울특별시 영등포구 당산동5가 11-34 삼성타운 1층 126호","lat":"37.5318637954132","lng":"126.90107239523122"},{"index":123742,"address":"서울시 중구 필동1가 19번지 2층","lat":"37.56127751953393","lng":"126.99190068340972"},{"index":124100,"address":"서울특별시 종로구 소격동 159","lat":"37.57880613592618","lng":"126.98163754816521"},{"index":124156,"address":"서울특별시 종로구 봉익동 11-20 덕촌빌딩 2F","lat":"37.573044571047625","lng":"126.99259672113368"},{"index":124228,"address":"경상북도 경산시 압량면 현흥리 334-5","lat":"35.86391525697091","lng":"128.77293690688262"},{"index":124289,"address":"광주 광산구 신창동 1141-7번지","lat":"35.19647561857872","lng":"126.84055248458627"},{"index":124595,"address":"서울시 마포구 상수동 310-8","lat":"37.54808323672619","lng":"126.92228019056425"},{"index":124650,"address":"서울특별시 종로구 종로2가 75-5 덴탈빌딩 3F","lat":"37.569951821281926","lng":"126.98654787035741"},{"index":124712,"address":"인천 중구 신생동 9-12","lat":"37.46979412272287","lng":"126.62645776815967"},{"index":125029,"address":"전라북도 군산시 죽성동 28-6","lat":"35.98545208147697","lng":"126.71648372166835"},{"index":125086,"address":"서울특별시 동작구 본동 187-4","lat":"37.51236528148577","lng":"126.9518520706728"},{"index":125151,"address":"서울특별시 중구 회현동2가 88 스테이트타워남산 B1층 104호","lat":"37.56017734560088","lng":"126.98291879705377"},{"index":125456,"address":"서울시 중구 다동 140번지 하나카드 본점 지하 1층","lat":"37.56708951946732","lng":"126.98114238441596"},{"index":125528,"address":"서울특별시 영등포구 영중로 15 신세계백화점 영등포점 A관 9층","lat":"37.517233707169474","lng":"126.90371599319953"},{"index":125884,"address":"서울특별시 강동구 명일2동 54","lat":"37.55046120299118","lng":"127.15515028907973"},{"index":125950,"address":"서울특별시 용산구 한남동 657-96 2층","lat":"37.53413235189822","lng":"127.00600553178371"},{"index":126009,"address":"서울특별시 금천구 가산동 345-4 에이스하이엔드타워 8차 504호","lat":"37.4733744338172","lng":"126.88544923000444"},{"index":126088,"address":"부산광역시 북구 화명동 1130-9","lat":"35.22940826394932","lng":"129.01345409115453"},{"index":126146,"address":"부산 광역시 북구 화명동 898-8","lat":"35.22549415589642","lng":"129.01233820726642"},{"index":126545,"address":"경기도 김포시 중구로 15","lat":"37.62297380382009","lng":"126.71116100026747"},{"index":126659,"address":"서울시 중구 수하동 67번지 미래에셋센터원 서관 36층","lat":"37.567421661369075","lng":"126.98517644473714"},{"index":126727,"address":"부산광역시 중구 남포동3가 2-3 지층","lat":"35.09899110321961","lng":"129.0285749531072"},{"index":126811,"address":"경기도 부천시 오정구 작동 201-18","lat":"37.51027962763835","lng":"126.81219580827509"},{"index":127201,"address":"충청북도 제천시 의림동 46-7","lat":"37.13931849780404","lng":"128.20838514602593"},{"index":127256,"address":"세종특별자치시 조치원읍 교리 24-3","lat":"36.60244022766575","lng":"127.29824396091027"},{"index":127377,"address":"서울시 중구 수하동 67번지 미래에셋센터원 서관 36층","lat":"37.567421661369075","lng":"126.98517644473714"},{"index":127447,"address":"경기도 부천시 오정구 작동 201-18","lat":"37.51027962763835","lng":"126.81219580827509"},{"index":127842,"address":"대구광역시 중구 삼덕동2가 210-5","lat":"35.86476169371534","lng":"128.60265977216005"},{"index":127955,"address":"서울시 중구 수하동 67번지 미래에셋센터원 서관 36층","lat":"37.567421661369075","lng":"126.98517644473714"},{"index":128043,"address":"경기도 부천시 오정구 작동 201-18","lat":"37.51027962763835","lng":"126.81219580827509"},{"index":128463,"address":"서울특별시 성북구 돈암동 48-4","lat":"37.5984040099391","lng":"127.02142470351035"},{"index":128541,"address":"경기도 포천시 군내면 직두리 248-1","lat":"37.87122240781657","lng":"127.24417095026737"},{"index":128590,"address":"서대문구 연희동 702-13 1층","lat":"37.574972039815414","lng":"126.92708828104962"},{"index":128655,"address":"충청남도 태안군 태안읍 남문리 721-18","lat":"36.7449817721406","lng":"126.30048464786286"},{"index":128720,"address":"서울시 강북구 우이동 224-2","lat":"37.6685960069653","lng":"127.0089225147798"},{"index":128965,"address":"서울특별시 강남구 대치동 889-5 샹제리제센터 A동 2층","lat":"37.50440696314353","lng":"127.04970354642872"},{"index":129028,"address":"서울시 중구 수하동 67번지 미래에셋센터원 서관 36층","lat":"37.567421661369075","lng":"126.98517644473714"},{"index":129505,"address":"강원도 양양군 강현면 해맞이길 59","lat":"38.116920853708045","lng":"128.6338819898168"},{"index":129561,"address":"경상북도 문경시 산북면 대상리 78-1","lat":"36.653984212456045","lng":"128.25755429303334"},{"index":129620,"address":"서울특별시 성북구 성북동 133-86","lat":"37.59242334987716","lng":"127.00221929484555"},{"index":129682,"address":"서울특별시 성북구 성북동 224-146","lat":"37.59273660356151","lng":"126.99141265171343"},{"index":130103,"address":"강원도 속초시 영랑동 131-177","lat":"38.21421053505564","lng":"128.59606674324544"},{"index":130165,"address":"충북 괴산군 청천면 후영리 625번지","lat":"36.689527662915474","lng":"127.79540714692378"},{"index":130249,"address":"경기 의정부시 금신로 323, 대영프라자빌딩 3층 303호","lat":"37.74477742223141","lng":"127.06167741319362"},{"index":130306,"address":"서울 금천구 가산디지털1로 84 에이스하이엔드 타워 8","lat":"37.47343940282251","lng":"126.88554861443906"},{"index":130361,"address":"서울 서대문구 가좌로 141","lat":"37.58452759338392","lng":"126.92362809770363"},{"index":130406,"address":"대전광역시 유성구 원촌동 77-4","lat":"36.378530465655636","lng":"127.40626289215143"},{"index":130466,"address":"충남 천안 서북구 두정동 4-8번지","lat":"36.83845414789711","lng":"127.1575028464172"},{"index":130850,"address":"서울특별시 마포구 서교동 346-16","lat":"37.55546196442411","lng":"126.92436849861517"},{"index":130945,"address":"경기 의정부시 금신로 323, 대영프라자빌딩 3층 303호","lat":"37.74477742223141","lng":"127.06167741319362"},{"index":131002,"address":"서울 금천구 가산디지털1로 84 에이스하이엔드 타워 8","lat":"37.47343940282251","lng":"126.88554861443906"},{"index":131057,"address":"서울 서대문구 가좌로 141","lat":"37.58452759338392","lng":"126.92362809770363"},{"index":131512,"address":"충남 보령시 오천면 소성리 691-52","lat":"36.43903935205696","lng":"126.52199374022119"},{"index":131580,"address":"서울 송파구 양산로 12, 지하 1층 B117호(거여동)","lat":"37.48991045127418","lng":"127.14359089080159"},{"index":131647,"address":"서울 금천구 가산디지털1로 2","lat":"37.46683554505061","lng":"126.88800033768293"},{"index":131691,"address":"서울 강서구 염창동 241-27","lat":"37.55547847908192","lng":"126.86587143792188"},{"index":131772,"address":"경기 의정부시 금신로 323, 대영프라자빌딩 3층 303호","lat":"37.74477742223141","lng":"127.06167741319362"},{"index":131829,"address":"서울 금천구 가산디지털1로 84 에이스하이엔드 타워 8","lat":"37.47343940282251","lng":"126.88554861443906"},{"index":131884,"address":"서울 서대문구 가좌로 141","lat":"37.58452759338392","lng":"126.92362809770363"},{"index":132279,"address":"서울특별시 동대문구 제기동 1013 2층","lat":"37.57895212836545","lng":"127.04007595889645"},{"index":132325,"address":"서울특별시 강남구 청담동 124-11","lat":"37.52502548228145","lng":"127.04982582460819"},{"index":132383,"address":"부산광역시 기장군 정관면 예림리 1089-3번지","lat":"35.32041179795451","lng":"129.20978968705003"},{"index":132447,"address":"경상남도 창원시 의창구 명서동 75-15","lat":"35.248648602991565","lng":"128.6465393388309"},{"index":132507,"address":"서울시 마포구 서교동 358-65 3층","lat":"37.55378842736731","lng":"126.92238743704802"},{"index":132570,"address":"경기도 고양시 일산서구 한류월드로 300 (대화동)","lat":"37.664553196977835","lng":"126.75452647169588"},{"index":132922,"address":"서울 강서구 화곡로21길 50","lat":"37.54300792565948","lng":"126.8366682500124"},{"index":132982,"address":"부산시 서구 충무동1가 9-14","lat":"35.09674926341464","lng":"129.02359835210854"},{"index":133061,"address":"부산 동구 조방로 4 상록회관","lat":"35.13781010893327","lng":"129.06399358451011"},{"index":133117,"address":"인천광역시 부평구 부평동 542-76","lat":"37.49420046439526","lng":"126.72182133070964"},{"index":133181,"address":"서울 용산구 서빙고동 70-2","lat":"37.522192282681345","lng":"126.99413117311121"},{"index":133239,"address":"서울시 종로구 종로20길 5","lat":"37.569981199484495","lng":"126.9927917203504"},{"index":133278,"address":"서울특별시 용산구 보광동 260-7","lat":"37.52752996625961","lng":"127.00000000000001"},{"index":133324,"address":"경기 시흥시 조남동 103-1","lat":"37.37785750739265","lng":"126.86967492700742"},{"index":133653,"address":"인천광역시 남동구 논현동 649-4 보미리즌텔 104호","lat":"37.399493112607686","lng":"126.72480097402078"},{"index":133811,"address":"서울 종로구 종로1가 24번지 르메이에르 종루타운 3층","lat":"37.57045902966368","lng":"126.97985109973956"},{"index":133883,"address":"서울 구로구 디지털로 272 한신 IT타워 815","lat":"37.48250101145444","lng":"126.89443060544502"},{"index":134310,"address":"부산광역시 부산진구 부전동 168-273","lat":"35.15713103009046","lng":"129.06208958285376"},{"index":134371,"address":"부산광역시 연제구 고분로 13번길 5-14","lat":"35.18639328925729","lng":"129.08357508683818"},{"index":134452,"address":"경기도 안성시 공도읍 마정리 200-217번지","lat":"37.01824492137545","lng":"127.19545918100174"},{"index":134523,"address":"경기도 용인시 기흥구 덕영대로 1732","lat":"37.23980159454262","lng":"127.08119789075346"},{"index":134586,"address":"경기도 고양시 일산 서구 한류월드로 300","lat":"37.664553196977835","lng":"126.75452647169588"},{"index":134645,"address":"대구광역시 북구 노원 3가 237-2 성산에스엠","lat":"35.895790165894404","lng":"128.56242702136376"},{"index":135056,"address":"인천광역시 남구 인하로 45","lat":"37.45228496602398","lng":"126.65340677594747"},{"index":135110,"address":"경북 경주시 황남동 53","lat":"35.83894280364407","lng":"129.21194951998095"},{"index":135160,"address":"서울 성동구 왕십리로 215-1","lat":"37.55676861798381","lng":"127.0429115673791"},{"index":135224,"address":"인천광역시 남동구 고잔동 658-1","lat":"37.39202797496452","lng":"126.70491700465473"},{"index":135289,"address":"인천광역시 남동구 구월동 279-3 메인프라자 4층","lat":"37.449145372013305","lng":"126.71084972545935"},{"index":135636,"address":"서울 강서구 화곡동 391-55","lat":"37.530927379245874","lng":"126.85030714301358"},{"index":135696,"address":"서울특별시 도봉구 창동 1-10","lat":"37.654775161388194","lng":"127.05080538819651"},{"index":135751,"address":"경남 통영시 도천동 1021-1 영생상가 1차 가동 106호","lat":"34.83879781620859","lng":"128.41624855806606"},{"index":135827,"address":"서울특별시 종로구 관훈동 182-2 ","lat":"37.574016809603414","lng":"126.98412010003256"},{"index":135889,"address":"경북 구미시 임수동 280","lat":"36.1135870503502","lng":"128.40458269117894"},{"index":136282,"address":"서울 도봉구 쌍문동 423-96 1층","lat":"37.65054348965766","lng":"127.01361169951277"},{"index":136345,"address":"서울 구로구 구로3동 197-7 에이스테크노타워 2차 207호","lat":"37.48493667357832","lng":"126.89368998241528"},{"index":136520,"address":"서울시 성북구 돈암2동 609-1","lat":"37.59480874606793","lng":"127.0103177857626"},{"index":136563,"address":"서울특별시 성북구 동선동4가 276-1 2","lat":"37.595632892409945","lng":"127.01951251585632"},{"index":136609,"address":"서울시 강남구 영동대로 714 하이트진로빌딩","lat":"37.52164899575756","lng":"127.05676928693349"},{"index":136702,"address":"부산광역시 해운대구 반여1동 1206-39 선수촌빌딩 3층","lat":"35.202668823152514","lng":"129.11986135887855"},{"index":136761,"address":"부산광역시 해운대구 재송동 1094-2","lat":"35.18519091978392","lng":"129.12146638231778"},{"index":136813,"address":"부산광역시 연제구 연산동 367-27","lat":"35.18835242758481","lng":"129.0966219661626"},{"index":136884,"address":"경북 예천군 예천읍 충효로 284","lat":"36.651053729331686","lng":"128.45535497456908"},{"index":136947,"address":"경북 예천군 예천읍 백전리 118-3","lat":"36.65978482462365","lng":"128.45992576203997"},{"index":137015,"address":"서울 강남구 대치 1동 1021-2 동서빌딩 2층","lat":"37.49805570814997","lng":"127.05958311203322"},{"index":137083,"address":"서울특별시 송파구 가락동 125-8 상아빌딩 3층","lat":"37.49207480685528","lng":"127.12610419252604"},{"index":137475,"address":"서울특별시 마포구 서교동 378-1 1층","lat":"37.552901980248485","lng":"126.91727762255029"},{"index":137536,"address":"인천 중구 경동 96-11","lat":"37.472880761193025","lng":"126.63387645264623"},{"index":137588,"address":"충남 당진시 우강면 대포리 137-1","lat":"36.80403496353849","lng":"126.81700953633457"},{"index":137649,"address":"서울특별시 송파구 잠실동 181 M 타워 501호 ","lat":"37.51149308735585","lng":"127.08112030430927"},{"index":137701,"address":"서울 동대문구 용두동 29-4 화성빌딩 3층","lat":"37.57575949429644","lng":"127.03860712290637"},{"index":137766,"address":"경남 김해시 함박로 102 한국2차아파트 오렌지상가 109호","lat":"35.23210462531942","lng":"128.86453433012923"},{"index":137839,"address":"경남 김해시 내동 1093-7번지","lat":"35.239346983374375","lng":"128.86263505073657"},{"index":137902,"address":"경북 문경시 점촌동 269-9","lat":"36.593283201666196","lng":"128.20139332769807"},{"index":137958,"address":"경상북도 문경시 영신로 65 (점촌동 5-2)","lat":"36.59534552879636","lng":"128.2073926561628"},{"index":138011,"address":"서울특별시 강남구 대치동 955-2 1층","lat":"37.50534297338982","lng":"127.05972009634678"},{"index":138060,"address":"경기 의정부시 금신로 323 대영프라자빌딩 3층 303호","lat":"37.74477742223141","lng":"127.06167741319362"},{"index":138455,"address":"서울 강남구 논현동 33-3","lat":"37.517233494619944","lng":"127.02841011958469"},{"index":138569,"address":"강원도 원주시 단계동 803-2","lat":"37.341103727825924","lng":"127.93885431406761"},{"index":138672,"address":"강원도 원주시 명륜동 671","lat":"37.328414024425236","lng":"127.94429264518142"},{"index":138738,"address":"강원도 원주시 명륜동 254","lat":"37.338611182284644","lng":"127.94906492540322"},{"index":138803,"address":"서울 영등포구 당산동3가 464","lat":"37.52507183905332","lng":"126.8945833261514"},{"index":139092,"address":"경기도 용인시 기흥구 고매동 418-12 팔도연구소 면연구팀","lat":"37.22267361138976","lng":"127.10521969227781"},{"index":139170,"address":"경기 화성시 능동 452-3 ","lat":"37.21082738304127","lng":"127.05661670795436"},{"index":139219,"address":"서울 영등포구 양평동5가 92 ","lat":"37.53945160759892","lng":"126.89435489081254"},{"index":139267,"address":"경기도 용인시 기흥구 구갈동 354-4 금강프라자 101호","lat":"37.279932695845886","lng":"127.11349921514297"},{"index":139330,"address":"서울 마포구 서교동 364-17 금광빌딩 1층","lat":"37.55158589081403","lng":"126.9216337622064"},{"index":139382,"address":"서울특별시 마포구 서교동 486 ","lat":"37.55379288404938","lng":"126.92369568722683"},{"index":139430,"address":"서울 종로구 화동 55-1","lat":"37.58158840340873","lng":"126.98162780781958"},{"index":139502,"address":"대전시 대덕구 석봉동 770  ","lat":"36.45146522343971","lng":"127.42034097419996"},{"index":139532,"address":"대전 유성구 원촌동 48","lat":"36.37730147148698","lng":"127.40514208222872"},{"index":139572,"address":"대전광역시 서구 둔산동 1500-1 ","lat":"36.3506019953188","lng":"127.38983496111861"},{"index":139633,"address":"부산 사하구 사리로 56-1 (괴정동)","lat":"35.10489382043937","lng":"128.99874452433158"},{"index":140109,"address":"서울특별시 강남구 삼성동 159","lat":"37.51252262947823","lng":"127.05882094848906"},{"index":140170,"address":"서울시 중구 신당동 366-128","lat":"37.55070342422502","lng":"127.00792163298385"},{"index":140232,"address":"부산 진구 초읍동 66-4","lat":"35.174345328288894","lng":"129.0481599252758"},{"index":140583,"address":"인천 중구 차이나타운로 48","lat":"37.47524832351409","lng":"126.61896921342971"},{"index":140672,"address":"대전 유성구 노은동 537-2","lat":"36.36927845080466","lng":"127.32321686480908"},{"index":140754,"address":"경기도 화성시 반월동 717-4 폴라리온스퀘어 ","lat":"37.22176129753114","lng":"127.0513878446281"},{"index":140806,"address":"서울 용산구 원효로 207(원효로2가 1-31 상원빌딩) 203호","lat":"37.53767367031008","lng":"126.96504678633318"},{"index":140896,"address":"서울 은평구 신사 2동 증산로 17길 7, 3층 이시웍스","lat":"37.590286307333976","lng":"126.91261664056209"},{"index":140954,"address":"대전광역시 동구 구도동 117-1번지","lat":"36.269222151678825","lng":"127.47724067452818"},{"index":141029,"address":"대전광역시 유성구 가정북로 26-41번지","lat":"36.38822903621762","lng":"127.36311241942298"},{"index":141094,"address":"서울 송파구 잠실동 252-11 ","lat":"37.50699250343272","lng":"127.08992367265483"},{"index":141149,"address":"서울특별시 강서구 등촌동 636-41 증미하이츠 101호 ","lat":"37.55536206773002","lng":"126.86180646712693"},{"index":141212,"address":"서울시 양천구 목3동 714-6번지","lat":"37.54075184858896","lng":"126.86524154691264"},{"index":141259,"address":"서울시 송파구 석촌동 1-1 신동아 로잔뷰 111호","lat":"37.50624028120666","lng":"127.09771755307041"},{"index":141322,"address":"경기 수원시 권선구 입북동 412-5 번지","lat":"37.29468499873538","lng":"126.9591234567476"},{"index":141383,"address":"경기 화성시 배양동 61-30","lat":"37.22475296626155","lng":"126.99410021505419"},{"index":141726,"address":"서울 종로구 관수동 31-1","lat":"37.56971074019277","lng":"126.9905187920858"},{"index":141803,"address":"충북 충주시 칠금동 30 부영 2차 아파트상가 3층","lat":"36.9933937907307","lng":"127.92984915669574"},{"index":141858,"address":"충북 충주시 노은면 문성리 산 67-1","lat":"37.02512624589348","lng":"127.75618411508978"},{"index":141909,"address":"충북 충주시 호암동 192번지","lat":"36.95889617318186","lng":"127.9392248278196"},{"index":141973,"address":"전북 전주시 덕진구 금암동 522-31","lat":"35.83571006543531","lng":"127.13606144664422"},{"index":142415,"address":"경기도 안양시 만안구 안양4동 676-106","lat":"37.39808980516277","lng":"126.9215363729862"},{"index":142486,"address":"서울시 금천구 가산동  345-4  에이스하이엔드타워  8 차  504 호","lat":"37.4733744338172","lng":"126.88544923000444"},{"index":142578,"address":"전라북도 완주군 소양면 해월리 377-19","lat":"35.86548388274825","lng":"127.25040787085004"},{"index":142648,"address":"전라북도 완주군 봉동읍 낙평리 984-1","lat":"35.93505502531446","lng":"127.15525237045748"},{"index":142708,"address":"충북 영동군 황간면 난곡리 546","lat":"36.24213179638907","lng":"127.91995816831093"},{"index":142775,"address":"경기도 수원시 팔달구 인계동 1118-8","lat":"37.26381699632818","lng":"127.03587694524005"},{"index":142842,"address":"경기도 수원시 팔달구 인계동 1113-11번지","lat":"37.26395499539641","lng":"127.03226044940028"},{"index":143226,"address":"경기 수원시 영통구 영통동 996-4","lat":"37.25447826811044","lng":"127.07503649833502"},{"index":143295,"address":"서울시 성동구 성수2가 275-71","lat":"37.541071562895574","lng":"127.06273578440786"},{"index":143354,"address":"서울시 성동구 성수2가1동 232-1 4층","lat":"37.53656086895615","lng":"127.05981739553121"},{"index":143388,"address":"서울시 성동구 성수2가1동 272-42","lat":"37.540961511589146","lng":"127.05950408698037"},{"index":143452,"address":"강원도 원주시 흥업면 흥업리 557-6 번지","lat":"37.29850968051352","lng":"127.91889429277826"},{"index":143519,"address":"서울특별시 강남구 논현동 4-19 혜정빌딩 1층","lat":"37.51719137984771","lng":"127.02322488650925"},{"index":143586,"address":"서울시 금천구 가산동 345-4 에이스하이엔드타워 8차 504호","lat":"37.4733744338172","lng":"126.88544923000444"},{"index":143649,"address":"강서구 등촌동 663-16","lat":"37.55858557808906","lng":"126.84560247732077"},{"index":143942,"address":"경기도 파주시 탄현면 금산리 345-7","lat":"37.80245990178788","lng":"126.69897684275107"},{"index":144004,"address":"서울 마포구 상수동 92-2","lat":"37.54921501501389","lng":"126.92246913081108"},{"index":144048,"address":"경기도 파주시 문발동 549-5","lat":"37.727747870877394","lng":"126.70586779407239"},{"index":144121,"address":"충북 제천시 화산동 643","lat":"37.127874576240636","lng":"128.21484222621166"},{"index":144162,"address":"충북 제천시 남현동 395","lat":"37.13615682698696","lng":"128.2123592482109"},{"index":144576,"address":"제주 서귀포시 중문동 1921-1","lat":"33.25079602812641","lng":"126.4320803585232"},{"index":144634,"address":"안산시 단원구 초지동 624-2","lat":"37.30347249518441","lng":"126.80019563148707"},{"index":144694,"address":"충북 청주시 상당구 남일면 교육원로 9번지 등고개농장","lat":"36.56966384224937","lng":"127.55663654001297"},{"index":144767,"address":"서울시 마포구 상수동 313-1번지","lat":"37.54867723869441","lng":"126.92128826511254"},{"index":145186,"address":"서울시 송파구 올림픽로 300 롯데월드몰 캐주얼동 5층","lat":"37.51375250260386","lng":"127.10444609981751"},{"index":145339,"address":"경기 부천시 오정구 내동 168 ","lat":"37.52240147375219","lng":"126.77972168383012"},{"index":145388,"address":"경기도 수원시 영통구 삼성로 274(원천동) 팩토리월드 415호","lat":"37.26561422874263","lng":"127.06436447816873"},{"index":145530,"address":"경기 김포시 대곶면 율생리 456-5","lat":"37.651753792109346","lng":"126.58311718137752"},{"index":145900,"address":"서울시 광진구 자양3동 554-7번지","lat":"37.534202664650884","lng":"127.0686269508976"},{"index":146019,"address":"서울 서초구 양재동 255-6","lat":"37.47357356052999","lng":"127.04284587037499"},{"index":146093,"address":"서초구 방배천로2안길 103","lat":"37.481628055090354","lng":"126.98394520649066"},{"index":146131,"address":"서초구 서초동 1684-1","lat":"37.49994714328153","lng":"127.01744293083838"},{"index":146173,"address":"서초구 동광로11길 63","lat":"37.494018904875084","lng":"126.9853945094364"},{"index":146216,"address":"서울 서초구 양재동 11-4 양재빌딩","lat":"37.48428350497365","lng":"127.03578310425942"},{"index":146272,"address":"서울시 마포구 합정동 368-52","lat":"37.54566378450884","lng":"126.91533476825346"},{"index":146333,"address":"서울 중구 남대문로 5가 21-1 신남문빌딩 601호","lat":"37.55896137437044","lng":"126.97492413327376"},{"index":146405,"address":"서울 용산구 이태원동 5-12","lat":"37.5404429701211","lng":"126.99422026345495"},{"index":146845,"address":"서울 중구 장충동 2가 186-54","lat":"37.56018216089634","lng":"127.00239489980763"},{"index":146929,"address":"경기 광주시 탄벌동 717-5","lat":"37.419299608532654","lng":"127.24646016775952"},{"index":146971,"address":"경기도 광주시 쌍령동 353-34","lat":"37.39709761469442","lng":"127.27622474676116"},{"index":147006,"address":"경기도 광주시 초월읍 경수길 25","lat":"37.41948906585484","lng":"127.28707960492157"},{"index":147073,"address":"서울 서초구 잠원동 38-26 1층","lat":"37.51092097056406","lng":"127.02006954560818"},{"index":147123,"address":"서울 강남구 신사동 541-14 202호","lat":"37.51887798266434","lng":"127.02360548606192"},{"index":147197,"address":"경상북도 경산시 진량읍 신상리 1185-10","lat":"35.87500199593939","lng":"128.83110699143157"},{"index":147680,"address":"전남 강진군 칠량면 장계리 88","lat":"34.5561903602488","lng":"126.8157997438349"},{"index":147723,"address":"경북 성주읍 심산로 66번지","lat":"35.917658436546816","lng":"128.27924667628488"},{"index":147792,"address":"경상북도 문경시 가은읍 작천리 592-1","lat":"36.64281532682172","lng":"128.04202135911132"},{"index":148138,"address":"경남 합천군 합천읍 합천리 590-4","lat":"35.56704849510809","lng":"128.16022383989142"},{"index":148181,"address":"서울 서대문구 연희동 132-28","lat":"37.568350019548774","lng":"126.93056296542913"},{"index":148231,"address":"강원도 강릉시 입암동 6통 1번 662-112번지  ","lat":"37.77002714000609","lng":"128.9224288109853"},{"index":148666,"address":"서울 중구 태평로  2  가  365    ","lat":"37.56479293933937","lng":"126.97645247360643"},{"index":148754,"address":"서울시 금천구 가산동  345-4  에이스하이엔드타워  8  차  504  호 ","lat":"37.4733744338172","lng":"126.88544923000444"},{"index":148824,"address":"서울특별시 서대문구 창천동  72-14  거화빌딩  1  층     ","lat":"37.556318580609094","lng":"126.9345352438038"},{"index":148955,"address":"강원도 횡성군 갑천면 정포로  430  번길  113    ","lat":"37.538109666612044","lng":"128.11224094566617"},{"index":149028,"address":"서울시 금천구 가산동  345-4  에이스하이엔드타워  8 차  504 호 ","lat":"37.4733744338172","lng":"126.88544923000444"},{"index":149202,"address":"서울시 구로구 오류  2  동  135-68    ","lat":"37.492527282765494","lng":"126.84250904419825"},{"index":149273,"address":"경기 용인시 수지구 성복동  605-1    ","lat":"37.31908836747761","lng":"127.05088994205329"},{"index":149888,"address":"서울 송파구 문정동 44","lat":"37.48904298679114","lng":"127.12348032435166"},{"index":149929,"address":"전북 부안군 진서면 곰소리 566번지","lat":"35.58976111221774","lng":"126.60370116859407"},{"index":150330,"address":"서울시 종로구 계동 102-1 ","lat":"37.579246461723244","lng":"126.98636506333386"},{"index":150385,"address":"서울시 용산구 이태원 2동 305-5 ","lat":"37.538863975411076","lng":"126.98825520748746"},{"index":150449,"address":"서울시 금천구 가산동 345-4 에이스하이엔드타워 8차 504호","lat":"37.4733744338172","lng":"126.88544923000444"},{"index":150514,"address":"서울시 중구 광희동 2가 12-3 2층 ","lat":"37.56450672844983","lng":"127.00753373087274"},{"index":150571,"address":"서울시 영등포구 양평동 4가 71-1 ","lat":"37.53675701808475","lng":"126.89570738138723"},{"index":150647,"address":"경상북도 안동시 광석동 16-1 ","lat":"36.56627385003741","lng":"128.72281434787573"},{"index":150708,"address":"경상북도 안동시 번영길11 ","lat":"36.56566177088641","lng":"128.7277511977933"},{"index":150784,"address":"서울시 중구 흥인동 97-2 ","lat":"37.565586964160765","lng":"127.01683342293839"},{"index":150849,"address":"서울시 강남구 신사동 543-8 ","lat":"37.51969963651246","lng":"127.02390890473939"},{"index":151194,"address":"광진구 군자동 361-32 1층 ","lat":"37.548195256107036","lng":"127.07155031340295"},{"index":151259,"address":"경기도 군포시 당정동 1011-3 ","lat":"37.34351060329117","lng":"126.95069160197338"},{"index":151834,"address":"대구 광역시 중구 달성동 182-1번지 ","lat":"35.87846211589022","lng":"128.57820395114126"},{"index":151904,"address":"서울시 서대문구 남가좌동 215-45 ","lat":"37.57622502841768","lng":"126.91969252373435"},{"index":152009,"address":"서울특별시 서초구 양재동 논현로 31길 47 ","lat":"37.48063809577792","lng":"127.04109972837338"},{"index":152075,"address":"서울특별시 서초구 방배동 447-7  ","lat":"37.476481686681424","lng":"126.98546575554562"},{"index":152148,"address":"서울시 용산구 한남동 737-2 백목빌딩 1층 2호 ","lat":"37.53585161032393","lng":"126.99905864409314"},{"index":152228,"address":"서울특별시 금천구 가산동 345-4 에이스하이엔드타워 8차 504호 ","lat":"37.4733744338172","lng":"126.88544923000444"},{"index":152329,"address":"인천시 동구 송림동 59-25번지 ","lat":"37.47509497141833","lng":"126.64494469822054"},{"index":152701,"address":"경기도 양평군 개군면 내리 13번지","lat":"37.44122662941807","lng":"127.57517763399451"},{"index":154173,"address":"부산 연제구 거제동 486-1","lat":"35.18190635718084","lng":"129.07281796965145"},{"index":154234,"address":"경기도 안양시 만안구 안양4동 676-124","lat":"37.397855199903745","lng":"126.92102614714422"},{"index":154301,"address":"서울 서초구 서초동 1317-23 GT타워 ","lat":"37.497819148904625","lng":"127.02620888819055"},{"index":154387,"address":"경기도 부천시 원미구 역곡동 85-6번지 ","lat":"37.48803872626919","lng":"126.81188514991081"},{"index":154474,"address":"서울시 동대문구 이문동 237-101번지 ","lat":"37.60312310761743","lng":"127.06599949930835"},{"index":154542,"address":"대전광역시 유성구 궁동 462-12","lat":"36.36048885472389","lng":"127.34057065626578"},{"index":154604,"address":"서울특별시 마포구 연남동 228-11 ","lat":"37.56324387603557","lng":"126.92579129240767"},{"index":154666,"address":"충청북도 옥천군 옥천읍 금구리 157-5","lat":"36.29981971557547","lng":"127.56781881737393"},{"index":154740,"address":"경상북도 김천시 부곡동 437-4","lat":"36.125681666549106","lng":"128.10668789461732"},{"index":154797,"address":"충청남도 서산시 읍내동 141-22 ","lat":"36.780281937465915","lng":"126.44982904289762"},{"index":154859,"address":"서울 종로구 부암동 258-3","lat":"37.59288687521181","lng":"126.96560524627377"},{"index":154928,"address":"인천광역시 중구 용동 1-1번지","lat":"37.47412290349127","lng":"126.63231482534394"},{"index":154992,"address":"서울 서대문구 남가좌1동 291-45","lat":"37.56942515802542","lng":"126.91572443513093"},{"index":155038,"address":"경북 울진군 죽변면 죽변리 36-8","lat":"37.059035946537044","lng":"129.4223147203647"},{"index":155127,"address":"서울특별시 마포구 대흥동 12-141","lat":"37.556034667031994","lng":"126.94303261338796"},{"index":155187,"address":"서울시 영등포구 문래동 6가 22-1번지","lat":"37.518768232226456","lng":"126.8865924976586"},{"index":155237,"address":"서울시 종로구 소격동 23","lat":"37.58108022319445","lng":"126.98150113509082"},{"index":155315,"address":"서울시 강동구 명일동 15 삼익2차상가 205호","lat":"37.553295330854155","lng":"127.14846102692192"},{"index":155368,"address":"충남 예산군 예산읍 산성리 319-3","lat":"36.68976940147615","lng":"126.83166992169006"},{"index":156002,"address":"성북구 보문동1가 107","lat":"37.58592736162682","lng":"127.01976812260207"},{"index":156062,"address":"대구 서구 국채보상로 316","lat":"35.87175984234953","lng":"128.56508607834039"},{"index":156131,"address":"서울 송파구 올림픽로 25 잠실주경기장 B-215호","lat":"37.51619977107392","lng":"127.07594025137807"},{"index":156242,"address":"대구광역시 달서구 달서대로 675번지","lat":"35.85946263317068","lng":"128.48634405382944"},{"index":156294,"address":"대구광역시 동구 팔공로 50길 32 (봉무동 524번지) 영신고등학교","lat":"35.91925526434729","lng":"128.64739810628797"},{"index":156357,"address":"서울특별시 성북구 동소문로26길 17 (동선동3가) ","lat":"37.59397501508141","lng":"127.01982913167028"},{"index":156464,"address":"서울 마포구 연남동 504-24 1층 ","lat":"37.56157143809932","lng":"126.91998442045369"},{"index":156537,"address":"충북 청주시 상당구 정하동 267-8 (도로명 : 토성로 65) ","lat":"36.67277774587433","lng":"127.46327672360907"},{"index":156965,"address":"경북 울진군 죽변면 죽변리 36-8","lat":"37.059035946537044","lng":"129.4223147203647"},{"index":157104,"address":"서울 영등포구 여의도동 23","lat":"37.52497993288366","lng":"126.9252997748768"},{"index":157156,"address":"서울 영등포구 여의도동 36-2, 여의도 백화점 2층","lat":"37.52078227197557","lng":"126.92691480230029"},{"index":157252,"address":"서울시 강남구 신사동 587번지 서울빌딩 3층","lat":"37.52053837300024","lng":"127.02841589742027"},{"index":157317,"address":"충청남도 금산군 추부면 대학로 201","lat":"36.191908377515674","lng":"127.45188496147644"},{"index":157375,"address":"충남 금산군 금산읍 상리 38-1 2층","lat":"36.10740574090667","lng":"127.49006233264595"},{"index":157431,"address":"충청남도 금산군 금산읍 중도리 203-22","lat":"36.11307042252387","lng":"127.49145698336419"},{"index":157503,"address":"경기 양평군 청운면 용두리 303-16","lat":"37.54685234417108","lng":"127.72385468279468"},{"index":157577,"address":"서울특별시 금천구 가산동 345-4 에이스하이엔드타워 8차 504호","lat":"37.4733744338172","lng":"126.88544923000444"},{"index":158046,"address":"서대문구 남가좌1동 291-45 (가좌역 3번출구방면)","lat":"37.56942515802542","lng":"126.91572443513093"},{"index":158429,"address":"서울특별시 금천구 가산동 345-4 에이스하이엔드타워 8차 504호","lat":"37.4733744338172","lng":"126.88544923000444"},{"index":158517,"address":"서울 강남구 논현동 101-12","lat":"37.52136064410699","lng":"127.03908133710492"},{"index":158580,"address":"서울 용산구 이태원동 228-6","lat":"37.54039965058836","lng":"126.99290771971475"},{"index":158626,"address":"서울 서초구 양재동 87-5","lat":"37.47980492703036","lng":"127.04289012932355"},{"index":158668,"address":"서울 강남구 청담동 22-20 ","lat":"37.52199085481887","lng":"127.04053868745298"},{"index":158712,"address":"서울 서초구 양재동 96-8","lat":"37.47680366110989","lng":"127.04034242333398"},{"index":158755,"address":"서울 동대문구 제기동 1142-3 ","lat":"37.59106500908916","lng":"127.04028173305501"},{"index":158828,"address":"서울시 강동구 명일동 15","lat":"37.553295330854155","lng":"127.14846102692192"},{"index":159240,"address":"대구광역시 중구 남일동 92 ","lat":"35.86928003325265","lng":"128.59439855988535"},{"index":159298,"address":"서울특별시 금천구 가산동 345-4 에이스하이엔드타워 8차 504호","lat":"37.4733744338172","lng":"126.88544923000444"},{"index":159710,"address":"서울특별시 금천구 가산동 345-4 에이스하이엔드타워 8차 504호","lat":"37.4733744338172","lng":"126.88544923000444"},{"index":159796,"address":"서울시 용산구 이태원동 557","lat":"37.537346570524505","lng":"126.98710135631141"},{"index":159862,"address":"서울시 종로구 소격동 23","lat":"37.58108022319445","lng":"126.98150113509082"},{"index":159917,"address":"서울특별시 금천구 가산동 345-4 에이스하이엔드타워 8차 504호","lat":"37.4733744338172","lng":"126.88544923000444"},{"index":160384,"address":"서울 강남구 신사동 520-1 1F","lat":"37.52070920607993","lng":"127.02159251150616"},{"index":160444,"address":"서울시 용산구 한남동 657-115(대사관로 31길 13)","lat":"37.533930541408914","lng":"127.00572945196028"},{"index":160537,"address":"서울시 용산구 한남동 657-115(대사관로 31길 13)","lat":"37.533930541408914","lng":"127.00572945196028"},{"index":160639,"address":"서울시 종로구 장사동 233-9","lat":"37.56924596999374","lng":"126.99251559727536"},{"index":160719,"address":"경기도 김포시 양촌읍 황금 1로 185번지 ","lat":"37.62233072563729","lng":"126.61251981629205"},{"index":160868,"address":"서울특별시 금천구 시흥동 984 시흥유통상가지점","lat":"37.4433312563841","lng":"126.90164109016378"},{"index":160958,"address":"경상남도 진주시 대안동 4-1 ","lat":"35.19607635786534","lng":"128.0844421135691"},{"index":160985,"address":"경상남도 진주시 촉석로 207번길 3) ","lat":"35.19610840748468","lng":"128.08448645922863"},{"index":161069,"address":"충북 청주시 상당구 낭성면 인경리 172-3","lat":"36.65865833930246","lng":"127.59846246070518"},{"index":161155,"address":"인천시 부평구 갈산동 381-2 ‘남강풍천장어’","lat":"37.507805110573","lng":"126.72314163891748"},{"index":161629,"address":"인천광역시 남동구 고잔동 697-10","lat":"37.39603211598624","lng":"126.68399970479078"},{"index":161681,"address":"인천광역시 계양구 작전동 427-6","lat":"37.52572120853364","lng":"126.72339672547608"},{"index":161728,"address":"인천광역시 연수구 아카데미로 119","lat":"37.377855711621734","lng":"126.63250529500654"},{"index":161793,"address":"경상북도 포항시 북구 흥해읍 흥안리 167","lat":"36.12640790495297","lng":"129.38169761050443"},{"index":161875,"address":"서울특별시 금천구 가산동 345-4 에이스하이엔드타워 8차 504호","lat":"37.4733744338172","lng":"126.88544923000444"},{"index":161938,"address":"경상북도 포항시 북구 남빈동 989-108","lat":"36.03548290522812","lng":"129.36302595641533"},{"index":161988,"address":"인천광역시 동구 송림동 294-1(인천산업유통센터 13동 123호)","lat":"37.486414814407496","lng":"126.65454266650228"},{"index":162057,"address":"서울특별시 종로구 예지동 3-1","lat":"37.570096743273275","lng":"127.00093273109468"},{"index":162101,"address":"서울특별시 영등포구 영등포동5가 6 ","lat":"37.51973426188025","lng":"126.90743666947893"},{"index":162174,"address":"서울특별시 종로구 봉익동 134","lat":"37.57171109752476","lng":"126.99258326937473"},{"index":162232,"address":"서울특별시 금천구 가산동 345-4 에이스하이엔드타워 8차 504호","lat":"37.4733744338172","lng":"126.88544923000444"},{"index":162673,"address":"전라남도 담양군 창평면 유천리 140","lat":"35.21888553122117","lng":"127.02046034496192"},{"index":162766,"address":"서울특별시 금천구 가산동 345-4 에이스하이엔드타워 8차 504호 ","lat":"37.4733744338172","lng":"126.88544923000444"},{"index":162856,"address":"서울시 영등포구 문래동 6가 22-1번지","lat":"37.518768232226456","lng":"126.8865924976586"},{"index":162922,"address":"전주시 완산구 교동 84-10","lat":"35.81343419811538","lng":"127.15142138378867"},{"index":162960,"address":"서울 서초구 신반포로 176 센트럴시티 1층 ","lat":"37.503934456230404","lng":"127.00241119724721"},{"index":163057,"address":"서울 금천구 가산동 벚꽃로24길 24 (세일로빌딩 에이동 3층)","lat":"37.47322167358209","lng":"126.88775566691285"},{"index":163143,"address":"부산광역시 동구 범일동 290 진시장 1층 상포 141-4","lat":"35.13628886090667","lng":"129.05870267547945"},{"index":163648,"address":"부산 연제구 거제동 486-1","lat":"35.18190635718084","lng":"129.07281796965145"},{"index":163691,"address":"부산시 동래구 복천동380-8번지 ","lat":"35.2054959519643","lng":"129.08388745987043"},{"index":163752,"address":"서울시 중구 남창동 49번지","lat":"37.559192576971924","lng":"126.97764940661399"},{"index":163815,"address":"대구 달서구 대천동 665","lat":"35.82733842248092","lng":"128.4964784054565"},{"index":163875,"address":"대구 광역시 중구 달성동 182-1번지","lat":"35.87846211589022","lng":"128.57820395114126"},{"index":163952,"address":"경기도 양평군 양서면 양수리 647-17","lat":"37.544230819722024","lng":"127.31695065882981"},